~VERSION INFORMATION
VERS.                  2.0 : CWLS LOG ASCII STANDARD VERSION 2.0
WRAP.                  NO  : DATA IS NOT WRAPPED
~Well Information Section
#MNEM.UNIT          VALUE/NAME                 DESCRIPTION
#----------------------------------------------------------------------
STRT.m                 933.7548 : START DEPTH
STOP.m                2596.7436 : STOP DEPTH
STEP.m                   0.1524 : STEP
NULL.                -999.25 : NULL VALUE
COMP.                                             : COMPANY
WELL.    DWN-M-2                                  : WELL
FLD .                                             : FIELD
LOC .             649450,         1813691         : LOCATION
CNTY.                                             : COUNTY
STAT.                                             : STATE
CTRY.                                             : COUNTRY
SRVC.    Jason                                    : SERVICE
DATE.                                             : DATE
API .                                             : API
~Curve Information Section
#MNEM.UNIT          API CODE                   DESCRIPTION
#----------------------------------------------------------------------
DEPTH.m                          : * MD (TRACK/INDEX)
TIME .ms                         : TIME 
DTS  .us/ft                      : S-SONIC
RESIS.ohm*m                      : RESISTIVITY
DT   .us/ft                      : P-SONIC
NPHI .V/V                        : NPHI
LITH .none                       : LITHOLOGY
GR   .gAPI                       : GAMMA RAY
RHOB .g/cc                       : DENSITY
~Parameter Information Section
#MNEM.UNIT          API CODE                   DESCRIPTION
#----------------------------------------------------------------------
XCRD .m                649450.000            : WELL POSITION X-COORD
YCRD .m                1813691.000           : WELL POSITION Y-COORD
DATUM.m                15.000                : WELL DATUM
~Other Information Section
#----------------------------------------------------------------------
# Data exported from Jason, (C) Jason, 2015
# Input file: 2_WELLS_RPM_18March16/DWN-M-2.wll
#----------------------------------------------------------------------
~A DEPTH        TIME           DTS            RESIS          DT             NPHI           LITH           GR             RHOB           
# ...
1904.8476      2221.4079      287.45593      0.85010782     133.53035      0.32489221     4              89.891664      2.1624628      
1905.0000      2221.5404      287.18933      0.88201378     135.14441      0.28808509     4              84.255857      2.1604778      
1905.1524      2221.6729      287.80769      0.8858552      135.40288      0.27373883     4              79.858541      2.1586265      
1905.3048      2221.8021      279.82108      0.84763378     132.56715      0.2982855      4              77.702357      2.1577033      
1905.4572      2221.9244      279.10184      0.76938857     130.62161      0.33689504     4              78.189404      2.1580394      
1905.6096      2222.0466      281.30631      0.73199611     129.76134      0.35660786     4              79.612532      2.1651402      
1905.7620      2222.1688      278.4892       0.73099246     128.85501      0.33760482     4              80.84537       2.1766998      
1905.9144      2222.2911      271.63856      0.792316       127.8905       0.30272548     4              82.07035       2.1880229      
1906.0668      2222.4133      265.68192      0.93615365     127.04254      0.27594576     4              84.656653      2.204737       
1906.2192      2222.5355      264.53552      1.0171008      126.21428      0.27273779     4              87.378947      2.2312788      
1906.3716      2222.6578      267.75591      1.0463285      125.22366      0.28834268     4              88.831956      2.2422763      
1906.5240      2222.78        271.12257      0.99733215     124.19058      0.30363265     4              87.624302      2.2451056      
1906.6764      2222.9022      269.73648      1.0234455      123.60598      0.30006802     4              85.148118      2.2651354      
1906.8288      2223.0245      263.3857       1.0929902      123.58201      0.2736954      4              83.710101      2.283874       
1906.9812      2223.1467      256.68521      1.0846922      123.67355      0.24038404     4              83.607459      2.2924947      
1907.1336      2223.2689      252.586        1.0196238      123.7045       0.2211178      4              84.876379      2.2944248      
1907.2860      2223.3912      250.88685      0.9958493      123.8144       0.21566151     4              85.626145      2.2859579      
1907.4384      2223.5134      250.54939      1.0321401      124.00508      0.22193872     4              85.9023        2.2702619      
1907.5908      2223.6356      251.00853      1.0448189      124.1613       0.22667759     4              85.376776      2.2564997      
1907.7432      2223.7587      251.69743      0.98379876     124.06855      0.22334349     4              85.034493      2.2533703      
1907.8956      2223.8822      251.62005      0.98352499     123.66169      0.22125717     4              85.227532      2.2614209      
1908.0480      2224.0057      252.00629      1.0026664      123.28027      0.21868955     4              85.703053      2.2705636      
1908.2004      2224.1292      254.96967      0.97994959     123.31594      0.23196219     4              85.46825       2.2569501      
1908.3528      2224.2527      260.34097      0.96275631     123.93317      0.26159444     4              85.119205      2.2298027      
1908.5052      2224.3762      267.14091      0.94690974     125.04434      0.3042707      4              84.589409      2.2090013      
1908.6576      2224.4997      273.2889       0.95483441     126.43529      0.3463015      4              84.297958      2.1894158      
1908.8100      2224.6232      276.63784      0.97009386     127.67772      0.36706275     4              82.637615      2.180636       
1908.9624      2224.7467      276.21989      0.96498257     128.54107      0.36346705     4              79.901089      2.1775101      
1909.1148      2224.8702      272.69159      0.95757336     129.08873      0.33705996     4              77.435677      2.1781253      
1909.2672      2224.9937      269.2645       0.94560309     129.40655      0.30741007     4              77.298806      2.1873141      
1909.4196      2225.1172      267.16524      0.94789169     129.31029      0.28780231     4              78.859143      2.1989691      
1909.5720      2225.2407      265.92353      0.94057798     128.51581      0.2827216      4              80.747777      2.2040825      
1909.7244      2225.3642      266.77085      0.93092155     127.46545      0.28927356     4              81.57096       2.2128631      
1909.8768      2225.4877      272.2272       0.89218564     126.78379      0.3090693      4              82.559646      2.2209021      
1910.0292      2225.6112      282.03685      0.85014427     127.21925      0.35048733     4              84.250874      2.2172136      
1910.1816      2225.7403      293.64816      0.7878564      129.63085      0.41492906     4              86.441631      2.1950794      
1910.3340      2225.8695      306.07022      0.68466978     133.15173      0.48628757     4              87.738555      2.1667458      
1910.4864      2225.9986      316.34604      0.60385296     135.94108      0.53354882     4              87.636638      2.1511874      
1910.6388      2226.1277      320.4196       0.59130517     136.87669      0.53334648     4              87.211666      2.1437426      
1910.7912      2226.2569      319.55045      0.6658989      136.1327       0.50129814     4              87.259406      2.1501774      
1910.9436      2226.386       315.85318      0.74330684     134.94774      0.45944892     4              88.580975      2.151          
1911.0960      2226.5151      308.36682      0.8250148      134.43893      0.41925524     4              89.509047      2.151          
1911.2484      2226.6443      301.78261      0.91062502     134.60182      0.39137861     4              89.874196      2.151          
1911.4008      2226.7734      301.39182      0.9178988      134.97291      0.38899965     4              88.754         2.1508758      
1911.5532      2226.9026      305.14409      0.98971263     135.35081      0.40902539     4              86.676202      2.1468969      
1911.7056      2227.0317      309.79457      1.0819116      135.84494      0.43548863     4              85.049261      2.1366786      
1911.8580      2227.1608      313.5677       1.0230275      136.08183      0.45535711     4              84.352752      2.1269342      
1912.0104      2227.29        314.54822      0.95985927     135.44038      0.4596228      4              86.572898      2.1189729      
1912.1628      2227.4191      310.38608      0.94874084     133.91964      0.44515323     4              90.018372      2.1195159      
1912.3152      2227.5482      301.68286      0.98132793     131.91533      0.41012405     4              93.931757      2.142938       
1912.4676      2227.6773      291.45468      1.035257       129.86189      0.37263452     4              96.16121       2.1632089      
1912.6200      2227.8063      282.08162      1.0965223      128.15491      0.33719209     4              96.834838      2.1775818      
1912.7724      2227.9354      276.00776      1.1396457      126.92939      0.31128828     4              96.508496      2.1857646      
1912.9248      2228.0644      275.07284      1.1533525      126.25143      0.30787041     4              96.092844      2.195478       
1913.0772      2228.1935      281.26552      1.1187877      126.12979      0.34018279     4              94.971754      2.214701       
1913.2296      2228.3225      293.54857      1.0695675      126.71008      0.37872966     4              94.002079      2.2462967      
1913.3820      2228.4515      307.79591      0.95543452     128.70541      0.4024382      4              92.532975      2.2460755      
1913.5344      2228.5806      322.7894       0.89883794     131.38241      0.42026671     4              92.08376       2.2430519      
1913.6868      2228.7096      338.71144      0.92782129     134.08873      0.45553597     4              91.714073      2.244206       
