~VERSION INFORMATION
VERS.                  2.0 : CWLS LOG ASCII STANDARD VERSION 2.0
WRAP.                  NO  : DATA IS NOT WRAPPED
~Well Information Section
#MNEM.UNIT          VALUE/NAME                 DESCRIPTION
#----------------------------------------------------------------------
STRT.m                 933.7548 : START DEPTH
STOP.m                2596.7436 : STOP DEPTH
STEP.m                   0.1524 : STEP
NULL.                -999.25 : NULL VALUE
COMP.                                             : COMPANY
WELL.    DWN-M-2                                  : WELL
FLD .                                             : FIELD
LOC .             649450,         1813691         : LOCATION
CNTY.                                             : COUNTY
STAT.                                             : STATE
CTRY.                                             : COUNTRY
SRVC.    Jason                                    : SERVICE
DATE.                                             : DATE
API .                                             : API
~Curve Information Section
#MNEM.UNIT          API CODE                   DESCRIPTION
#----------------------------------------------------------------------
DEPTH.m                          : * MD (TRACK/INDEX)
TIME .ms                         : TIME 
DTS  .us/ft                      : S-SONIC
RESIS.ohm*m                      : RESISTIVITY
DT   .us/ft                      : P-SONIC
NPHI .V/V                        : NPHI
LITH .none                       : LITHOLOGY
GR   .gAPI                       : GAMMA RAY
RHOB .g/cc                       : DENSITY
~Parameter Information Section
#MNEM.UNIT          API CODE                   DESCRIPTION
#----------------------------------------------------------------------
XCRD .m                649450.000            : WELL POSITION X-COORD
YCRD .m                1813691.000           : WELL POSITION Y-COORD
DATUM.m                15.000                : WELL DATUM
~Other Information Section
#----------------------------------------------------------------------
# Data exported from Jason, (C) Jason, 2015
# Input file: 2_WELLS_RPM_18March16/DWN-M-2.wll
#----------------------------------------------------------------------
~A DEPTH        TIME           DTS            RESIS          DT             NPHI           LITH           GR             RHOB           
# ...
2435.3520      2713.9359      329.00909      0.72591235     133.695        0.44690942     0              86.193553      2.2615968      
2435.5044      2714.0746      328.30179      0.73041786     134.6265       0.45789082     0              84.542467      2.2612351      
2435.6568      2714.2134      327.66178      0.73871014     136.00775      0.48278168     0              84.809634      2.2535687      
2435.8092      2714.3521      327.23946      0.74270204     137.62128      0.49889004     0              85.675247      2.2445773      
2435.9616      2714.4908      327.13368      0.74329594     139.31487      0.52699619     0              86.505388      2.2327727      
2436.1140      2714.6295      327.08602      0.74070533     140.15618      0.53516889     0              87.693907      2.2276294      
2436.2664      2714.7682      326.48525      0.74631075     139.52483      0.53186646     0              89.343302      2.2320038      
2436.4188      2714.9069      324.79115      0.75139644     137.65163      0.50170936     0              91.246708      2.247249       
2436.5712      2715.0457      322.19787      0.74870528     135.79323      0.47961102     0              93.353248      2.2599244      
2436.7236      2715.1844      319.55445      0.75221323     134.58723      0.45943028     0              95.294952      2.2683862      
2436.8760      2715.3231      318.68338      0.75661007     134.04036      0.46195294     0              97.182946      2.269282       
2437.0284      2715.4618      318.66664      0.76001005     133.6411       0.45355547     0              97.38817       2.268785       
2437.1808      2715.6003      318.66664      0.76470885     133.61559      0.45632959     0              96.239182      2.2685877      
2437.3332      2715.7377      318.66664      0.76771205     134.19072      0.46135448     0              94.22403       2.2682377      
2437.4856      2715.875       318.66046      0.77199768     135.06672      0.47881653     0              93.248788      2.2640837      
2437.6380      2716.0124      318.4195       0.76970593     135.32557      0.48668866     0              93.933463      2.2629581      
2437.7904      2716.1497      316.725        0.77472159     134.63398      0.47628405     0              95.767614      2.2705049      
2437.9428      2716.2871      313.32768      0.78472897     133.94133      0.46818664     0              97.823457      2.2782003      
2438.0952      2716.4244      309.04526      0.79463145     133.717        0.47308022     0              98.533306      2.2807879      
2438.2476      2716.5618      305.13882      0.80885645     133.29942      0.47503659     0              98.114913      2.2843359      
2438.4000      2716.6991      304.16643      0.84238557     132.01693      0.46218589     0              96.867973      2.2956027      
2438.5524      2716.8365      304.80157      0.83139259     130.43051      0.43105787     0              95.729784      2.3037175      
2438.7048      2716.9738      306.02345      0.82938323     129.70769      0.41889643     0              95.130517      2.3011496      
2438.8572      2717.1112      309.17289      0.82218617     130.28101      0.4269209      0              93.836668      2.2963197      
2439.0096      2717.2485      311.52594      0.81780486     131.82974      0.45272486     0              91.973725      2.2894157      
2439.1620      2717.3859      310.66302      0.82170308     133.54539      0.48051101     0              89.775556      2.2768771      
2439.3144      2717.5232      310.18988      0.82258961     134.83198      0.49898383     0              89.241302      2.2661042      
2439.4668      2717.6603      310.04417      0.81620323     135.58264      0.50902459     0              90.172236      2.2592601      
2439.6192      2717.7963      309.23373      0.81941508     136.0214       0.51173999     0              92.163643      2.2559858      
2439.7716      2717.9324      307.84113      0.82822393     136.30877      0.51935233     0              93.331456      2.2529382      
2439.9240      2718.0685      306.57062      0.83781675     136.22661      0.51592243     0              93.847106      2.2541454      
2440.0764      2718.2045      305.79942      0.84279633     135.88324      0.51309837     0              93.661651      2.2571418      
2440.2288      2718.3406      304.39123      0.83890003     135.59469      0.50454566     0              94.036103      2.2610712      
2440.3812      2718.4767      302.45001      0.8389037      135.40412      0.50689387     0              95.512266      2.2621918      
2440.5336      2718.6127      301.76306      0.84169508     134.45402      0.49525085     0              97.039701      2.2698368      
2440.6860      2718.7488      301.73601      0.83839828     132.51346      0.46539336     0              98.050984      2.285619       
2440.8384      2718.8849      301.86546      0.83800234     130.4587       0.43374568     0              96.908295      2.2952705      
2440.9908      2719.0209      303.32356      0.84020735     129.22611      0.4115387      0              95.776194      2.2959776      
2441.1432      2719.157       305.70413      0.84380529     128.92182      0.41529793     0              95.614273      2.2954033      
2441.2956      2719.293       306.81275      0.84550792     128.9201       0.41455852     0              97.55675       2.2955504      
2441.4480      2719.4291      307.44276      0.84850154     129.21674      0.41983887     0              100.39146      2.2969174      
2441.6004      2719.5652      308.00056      0.84890229     130.18461      0.4283407      0              101.64891      2.2986224      
2441.7528      2719.7008      308.07544      0.85029783     131.81636      0.46009268     0              101.56657      2.2931411      
2441.9052      2719.8338      307.8185       0.84868724     132.94487      0.47853321     0              99.330217      2.2835958      
2442.0576      2719.9667      306.46275      0.84269126     132.7783       0.47952474     0              97.145828      2.2828502      
2442.2100      2720.0997      304.44154      0.83980324     131.77252      0.45383724     0              94.988869      2.2924378      
2442.3624      2720.2327      303.10253      0.84269935     131.35571      0.45324196     0              94.017345      2.2950993      
2442.5148      2720.3656      302.28377      0.84220072     131.68211      0.45784352     0              95.207396      2.2918836      
2442.6672      2720.4986      301.76999      0.84271161     132.19538      0.47659023     0              97.763102      2.283953       
2442.8196      2720.6316      301.14052      0.84880461     132.07607      0.47729618     0              100.08332      2.2825105      
2442.9720      2720.7645      300.00231      0.84999593     131.18266      0.47083103     0              100.00813      2.2891738      
2443.1244      2720.8975      301.28281      0.84670642     129.70457      0.45296595     0              97.483344      2.3046153      
2443.2768      2721.0288      301.96388      0.85132147     127.94611      0.4242308      0              94.837005      2.3225758      
2443.4292      2721.1585      298.36007      0.91922044     126.40126      0.40665022     0              93.927087      2.3347623      
2443.5816      2721.2883      296.05183      0.95901936     125.65995      0.39070479     0              94.320458      2.338839       
2443.7340      2721.418       296.62286      0.89051489     126.05934      0.39733429     0              95.335709      2.3311645      
2443.8864      2721.5477      298.95073      0.86240572     126.86466      0.40531214     0              95.268228      2.3225953      
2444.0388      2721.6775      300.7886       0.86611193     127.39858      0.41656923     0              94.992193      2.3170937      
2444.1912      2721.8056      300.03513      0.87161844     127.31053      0.41144355     0              94.16391       2.3159737      
