~VERSION INFORMATION
VERS.                  2.0 : CWLS LOG ASCII STANDARD VERSION 2.0
WRAP.                  NO  : DATA IS NOT WRAPPED
~Well Information Section
#MNEM.UNIT          VALUE/NAME                 DESCRIPTION
#----------------------------------------------------------------------
STRT.m                 933.7548 : START DEPTH
STOP.m                2596.7436 : STOP DEPTH
STEP.m                   0.1524 : STEP
NULL.                -999.25 : NULL VALUE
COMP.                                             : COMPANY
WELL.    DWN-M-2                                  : WELL
FLD .                                             : FIELD
LOC .             649450,         1813691         : LOCATION
CNTY.                                             : COUNTY
STAT.                                             : STATE
CTRY.                                             : COUNTRY
SRVC.    Jason                                    : SERVICE
DATE.                                             : DATE
API .                                             : API
~Curve Information Section
#MNEM.UNIT          API CODE                   DESCRIPTION
#----------------------------------------------------------------------
DEPTH.m                          : * MD (TRACK/INDEX)
TIME .ms                         : TIME 
DTS  .us/ft                      : S-SONIC
RESIS.ohm*m                      : RESISTIVITY
DT   .us/ft                      : P-SONIC
NPHI .V/V                        : NPHI
LITH .none                       : LITHOLOGY
GR   .gAPI                       : GAMMA RAY
RHOB .g/cc                       : DENSITY
~Parameter Information Section
#MNEM.UNIT          API CODE                   DESCRIPTION
#----------------------------------------------------------------------
XCRD .m                649450.000            : WELL POSITION X-COORD
YCRD .m                1813691.000           : WELL POSITION Y-COORD
DATUM.m                15.000                : WELL DATUM
~Other Information Section
#----------------------------------------------------------------------
# Data exported from Jason, (C) Jason, 2015
# Input file: 2_WELLS_RPM_18March16/DWN-M-2.wll
#----------------------------------------------------------------------
~A DEPTH        TIME           DTS            RESIS          DT             NPHI           LITH           GR             RHOB           
# ...
2390.3940      2674.2788      310.82764      0.79572501     129.30677      0.39246615     0              105.75753      2.2707624      
2390.5464      2674.413       315.48416      0.81082618     130.14386      0.42393359     0              106.52134      2.2689202      
2390.6988      2674.5472      318.28644      0.81911484     130.68355      0.44036089     0              106.36225      2.2696694      
2390.8512      2674.6816      317.68118      0.82531325     130.62256      0.441247       0              104.82892      2.2738396      
2391.0036      2674.8162      314.30243      0.83011453     130.05551      0.42699119     0              102.10622      2.2796243      
2391.1560      2674.9507      311.20772      0.83501465     129.65654      0.41758906     0              98.859576      2.2843573      
2391.3084      2675.0852      308.43989      0.84121127     129.6037       0.41865861     0              95.817191      2.2863251      
2391.4608      2675.2197      305.18409      0.84631009     129.73428      0.41055364     0              93.778499      2.2866233      
2391.6132      2675.3542      305.36764      0.85010513     129.87285      0.41478078     0              92.85794       2.2871116      
2391.7656      2675.4887      311.41912      0.85160667     130.56788      0.42409006     0              93.148555      2.2893636      
2391.9180      2675.6233      321.28297      0.85390923     132.48324      0.46507307     0              93.712906      2.284823       
2392.0704      2675.7578      328.73677      0.85779399     134.17686      0.49514607     0              93.536878      2.271069       
2392.2228      2675.8923      328.80022      0.85310293     134.42512      0.50391821     0              92.210342      2.2662094      
2392.3752      2676.0268      322.54045      0.85511784     133.29894      0.48419797     0              90.52384       2.2752695      
2392.5276      2676.1613      317.71305      0.86310165     132.15508      0.46331569     0              90.272328      2.2858935      
2392.6800      2676.2958      317.16883      0.86351061     131.70063      0.46097658     0              92.234893      2.2894722      
2392.8324      2676.4303      317.91484      0.87162067     131.43101      0.45908438     0              95.388955      2.2903524      
2392.9848      2676.5649      316.98846      0.87951996     130.85441      0.45626487     0              97.977971      2.2911398      
2393.1372      2676.6997      314.24653      0.88589477     130.01542      0.44079606     0              99.104146      2.2917817      
2393.2896      2676.8347      313.19019      0.88048552     129.65351      0.43125153     0              99.63371       2.2933397      
2393.4420      2676.9697      316.87872      0.87308052     130.4406       0.43785699     0              100.63475      2.2935354      
2393.5944      2677.1048      325.34687      0.86505883     132.33693      0.46408484     0              101.89148      2.2852032      
2393.7468      2677.2398      333.41557      0.84753484     134.20363      0.49739786     0              102.63388      2.2665559      
2393.8992      2677.3749      334.12055      0.82634477     134.53753      0.50069807     0              102.20905      2.2618868      
2394.0516      2677.5099      326.83434      0.80723821     133.12296      0.48057958     0              101.02421      2.276836       
2394.2040      2677.6449      318.43616      0.83728956     131.1578       0.44476993     0              99.997956      2.3026934      
2394.3564      2677.78        314.91543      0.87097164     130.05126      0.42929834     0              99.515336      2.3202715      
2394.5088      2677.915       316.05352      0.85378131     130.1849       0.43134357     0              99.841608      2.3229489      
2394.6612      2678.05        319.57372      0.84850364     131.01299      0.44112602     0              100.66668      2.3153673      
2394.8136      2678.1851      323.21587      0.85151282     131.82176      0.45103881     0              101.45813      2.3044032      
2394.9660      2678.3201      326.09735      0.8573102      132.47195      0.45599869     0              101.57884      2.2954538      
2395.1184      2678.4552      328.00591      0.86030863     132.9985       0.46908701     0              100.39554      2.287395       
2395.2708      2678.5902      327.07381      0.86390288     133.01208      0.47325399     0              98.028852      2.2851429      
2395.4232      2678.725       322.7629       0.86500345     132.3076       0.46711781     0              95.490002      2.2895226      
2395.5756      2678.8596      317.28965      0.86651083     131.26244      0.4512488      0              93.924504      2.2970024      
2395.7280      2678.9941      313.86451      0.87161826     130.52179      0.4376288      0              93.480104      2.3009937      
2395.8804      2679.1286      313.47032      0.87752004     130.39325      0.44044634     0              93.659649      2.3021505      
2396.0328      2679.2632      314.02444      0.88540849     130.46466      0.4446789      0              93.730224      2.3027861      
2396.1852      2679.3977      313.28242      0.88839783     130.22743      0.4468511      0              93.834485      2.3023486      
2396.3376      2679.5323      311.04502      0.88689538     129.62148      0.43456503     0              94.764358      2.3013147      
2396.4900      2679.6668      310.82542      0.8854061      129.44174      0.42703764     0              95.955574      2.2997225      
2396.6424      2679.8013      315.54042      0.89129857     130.3666       0.44621424     0              98.154645      2.2957975      
2396.7948      2679.9359      322.39347      0.89013133     131.82593      0.47712276     0              99.464783      2.2828856      
2396.9472      2680.0704      326.16693      0.91267177     132.66637      0.49829638     0              100.12604      2.2714399      
2397.0996      2680.2049      324.22935      0.93737814     132.22446      0.49469897     0              98.82163       2.2760655      
2397.2520      2680.3395      319.46617      0.91477415     131.307        0.47454297     0              96.411203      2.2895058      
2397.4044      2680.474       316.38856      0.90418786     130.9002       0.47128063     0              94.512487      2.2947977      
2397.5568      2680.6085      315.20289      0.90008527     130.72359      0.46096545     0              93.767286      2.2989417      
2397.7092      2680.7429      314.64102      0.8944799      130.55667      0.46189364     0              94.551956      2.2995944      
2397.8616      2680.8763      313.24551      0.88800121     130.2202       0.44648016     0              95.195412      2.3039591      
2398.0140      2681.0096      313.06783      0.88910497     130.23467      0.44941121     0              95.492633      2.3025444      
2398.1664      2681.143       314.50899      0.89169814     130.70152      0.45850496     0              94.727959      2.2966264      
2398.3188      2681.2764      316.54975      0.89039343     131.34064      0.47239963     0              93.727368      2.2887025      
2398.4712      2681.4097      318.69211      0.88790909     131.89258      0.48221056     0              93.031241      2.2831442      
2398.6236      2681.5431      320.91615      0.89684112     132.2433       0.48926614     0              93.270218      2.2813822      
2398.7760      2681.6764      321.68429      0.92026399     132.13835      0.49601266     0              93.987459      2.2842489      
2398.9284      2681.8098      318.85786      0.94537195     131.15373      0.48132203     0              94.974099      2.2968779      
2399.0808      2681.9431      314.67886      0.92756349     129.91539      0.46314498     0              95.78406       2.3106467      
2399.2332      2682.0765      312.22482      0.91428597     129.25746      0.44927396     0              97.497549      2.3159671      
