~VERSION INFORMATION
VERS.                  2.0 : CWLS LOG ASCII STANDARD VERSION 2.0
WRAP.                  NO  : DATA IS NOT WRAPPED
~Well Information Section
#MNEM.UNIT          VALUE/NAME                 DESCRIPTION
#----------------------------------------------------------------------
STRT.m                 933.7548 : START DEPTH
STOP.m                2596.7436 : STOP DEPTH
STEP.m                   0.1524 : STEP
NULL.                -999.25 : NULL VALUE
COMP.                                             : COMPANY
WELL.    DWN-M-2                                  : WELL
FLD .                                             : FIELD
LOC .             649450,         1813691         : LOCATION
CNTY.                                             : COUNTY
STAT.                                             : STATE
CTRY.                                             : COUNTRY
SRVC.    Jason                                    : SERVICE
DATE.                                             : DATE
API .                                             : API
~Curve Information Section
#MNEM.UNIT          API CODE                   DESCRIPTION
#----------------------------------------------------------------------
DEPTH.m                          : * MD (TRACK/INDEX)
TIME .ms                         : TIME 
DTS  .us/ft                      : S-SONIC
RESIS.ohm*m                      : RESISTIVITY
DT   .us/ft                      : P-SONIC
NPHI .V/V                        : NPHI
LITH .none                       : LITHOLOGY
GR   .gAPI                       : GAMMA RAY
RHOB .g/cc                       : DENSITY
~Parameter Information Section
#MNEM.UNIT          API CODE                   DESCRIPTION
#----------------------------------------------------------------------
XCRD .m                649450.000            : WELL POSITION X-COORD
YCRD .m                1813691.000           : WELL POSITION Y-COORD
DATUM.m                15.000                : WELL DATUM
~Other Information Section
#----------------------------------------------------------------------
# Data exported from Jason, (C) Jason, 2015
# Input file: 2_WELLS_RPM_18March16/DWN-M-2.wll
#----------------------------------------------------------------------
~A DEPTH        TIME           DTS            RESIS          DT             NPHI           LITH           GR             RHOB           
# ...
1859.8896      2179.9113      -999.25        0.88709566     -999.25        0.42142373     -999.25        90.155041      -999.25        
1860.0420      2180.0527      -999.25        0.88358956     -999.25        0.42904837     -999.25        89.359468      -999.25        
1860.1944      2180.1941      -999.25        0.87954055     -999.25        0.43160354     -999.25        89.353451      -999.25        
1860.3468      2180.3355      -999.25        0.91308769     -999.25        0.42288265     -999.25        90.644363      -999.25        
1860.4992      2180.4769      -999.25        0.90408589     -999.25        0.41266418     -999.25        91.6125        -999.25        
1860.6516      2180.6183      -999.25        0.82580446     -999.25        0.40466659     -999.25        91.992913      -999.25        
1860.8040      2180.7597      -999.25        0.82914465     -999.25        0.41986625     -999.25        91.415512      -999.25        
1860.9564      2180.9012      -999.25        0.8612708      -999.25        0.42973439     -999.25        91.689361      -999.25        
1861.1088      2181.0426      -999.25        0.88918656     -999.25        0.45170268     -999.25        91.856681      -999.25        
1861.2612      2181.184       -999.25        0.88024602     -999.25        0.46912809     -999.25        91.778615      -999.25        
1861.4136      2181.3254      -999.25        0.85395409     -999.25        0.50345714     -999.25        90.872466      -999.25        
1861.5660      2181.4668      -999.25        0.83930212     -999.25        0.51563151     -999.25        89.99963       -999.25        
1861.7184      2181.6082      -999.25        0.84103712     -999.25        0.51522914     -999.25        90.183744      -999.25        
1861.8708      2181.7496      -999.25        0.86391436     -999.25        0.49317534     -999.25        90.345825      -999.25        
1862.0232      2181.891       -999.25        0.86779379     -999.25        0.48975838     -999.25        90.747393      -999.25        
1862.1756      2182.0325      -999.25        0.86334166     -999.25        0.48151838     -999.25        91.325294      -999.25        
1862.3280      2182.1739      -999.25        0.82406525     -999.25        0.49767362     -999.25        92.368572      -999.25        
1862.4804      2182.3153      -999.25        0.81344004     -999.25        0.50605389     -999.25        92.777255      -999.25        
1862.6328      2182.4567      -999.25        0.84760428     -999.25        0.529845       -999.25        91.277864      -999.25        
1862.7852      2182.5981      -999.25        0.84877866     -999.25        0.51497766     -999.25        88.477275      -999.25        
1862.9376      2182.7395      -999.25        0.8299361      -999.25        0.48995711     -999.25        86.219428      -999.25        
1863.0900      2182.8809      -999.25        0.80094018     -999.25        0.45968906     -999.25        85.689366      -999.25        
1863.2424      2183.0224      -999.25        0.78144364     -999.25        0.46108415     -999.25        86.069281      -999.25        
1863.3948      2183.1638      -999.25        0.76102059     -999.25        0.4760323      -999.25        87.182898      -999.25        
1863.5472      2183.3052      -999.25        0.77506109     -999.25        0.47488475     -999.25        88.086628      -999.25        
1863.6996      2183.4466      -999.25        0.80213723     -999.25        0.47313333     -999.25        89.638821      -999.25        
1863.8520      2183.588       -999.25        0.81380894     -999.25        0.48033948     -999.25        90.087526      -999.25        
1864.0044      2183.7294      -999.25        0.81626638     -999.25        0.50806212     -999.25        89.208499      -999.25        
1864.1568      2183.8708      -999.25        0.79247888     -999.25        0.50912131     -999.25        87.388238      -999.25        
1864.3092      2184.0122      -999.25        0.7862511      -999.25        0.48093817     -999.25        86.146666      -999.25        
1864.4616      2184.1537      -999.25        0.75949121     -999.25        0.45499761     -999.25        86.99674       -999.25        
1864.6140      2184.2951      -999.25        0.75712845     -999.25        0.451572       -999.25        89.274879      -999.25        
1864.7664      2184.4365      -999.25        0.77818831     -999.25        0.46862179     -999.25        90.992452      -999.25        
1864.9188      2184.5779      -999.25        0.76787679     -999.25        0.47150336     -999.25        91.298784      -999.25        
1865.0712      2184.7193      -999.25        0.75863109     -999.25        0.48309602     -999.25        89.920421      -999.25        
1865.2236      2184.8607      -999.25        0.77933805     -999.25        0.49637235     -999.25        89.39711       -999.25        
1865.3760      2185.0021      -999.25        0.79129148     -999.25        0.51344971     -999.25        89.79695       -999.25        
1865.5284      2185.1436      -999.25        0.7854825      -999.25        0.50437091     -999.25        91.007089      -999.25        
1865.6808      2185.285       -999.25        0.77881556     -999.25        0.49066348     -999.25        91.052491      -999.25        
1865.8332      2185.4264      -999.25        0.78960491     -999.25        0.47992251     -999.25        89.862132      -999.25        
1865.9856      2185.5678      -999.25        0.79088171     -999.25        0.48769523     -999.25        88.396329      -999.25        
1866.1380      2185.7092      -999.25        0.77787576     -999.25        0.49177617     -999.25        87.643158      -999.25        
1866.2904      2185.8506      -999.25        0.76946888     -999.25        0.4937781      -999.25        87.550596      -999.25        
1866.4428      2185.992       -999.25        0.7558029      -999.25        0.48948905     -999.25        87.839391      -999.25        
1866.5952      2186.1334      -999.25        0.75831469     -999.25        0.48953623     -999.25        88.781682      -999.25        
1866.7476      2186.2749      -999.25        0.76596443     -999.25        0.48670256     -999.25        89.961249      -999.25        
1866.9000      2186.4163      -999.25        0.73461853     -999.25        0.47803258     -999.25        91.648054      -999.25        
1867.0524      2186.5577      -999.25        0.74869762     -999.25        0.46753412     -999.25        92.906929      -999.25        
1867.2048      2186.6991      -999.25        0.74711249     -999.25        0.46733691     -999.25        94.713077      -999.25        
1867.3572      2186.8405      -999.25        0.75679867     -999.25        0.47975376     -999.25        96.362367      -999.25        
1867.5096      2186.9819      365.55835      0.75590527     141.49846      0.49403008     0              97.092994      2.1917566      
1867.6620      2187.1233      368.67176      0.76012202     142.00155      0.50605448     0              96.281915      2.1808484      
1867.8144      2187.2648      373.79542      0.77029827     142.73071      0.50846946     0              93.530702      2.1687205      
1867.9668      2187.4062      377.70557      0.76887856     143.14053      0.50471869     0              90.760822      2.1583512      
1868.1192      2187.5476      379.16552      0.75576658     143.15583      0.48696433     0              88.263489      2.148567       
1868.2716      2187.689       378.1293       0.74291085     142.85393      0.47780524     0              87.441911      2.1444908      
1868.4240      2187.8304      374.04686      0.75081302     142.17816      0.467387       0              88.477929      2.1443999      
1868.5764      2187.9718      367.29425      0.7552564      141.09623      0.46357187     0              91.385026      2.1444509      
1868.7288      2188.1139      360.67241      0.72279523     140.08087      0.45889226     0              94.833006      2.1462097      
