~VERSION INFORMATION
VERS.                  2.0 : CWLS LOG ASCII STANDARD VERSION 2.0
WRAP.                  NO  : DATA IS NOT WRAPPED
~Well Information Section
#MNEM.UNIT          VALUE/NAME                 DESCRIPTION
#----------------------------------------------------------------------
STRT.m                 933.7548 : START DEPTH
STOP.m                2596.7436 : STOP DEPTH
STEP.m                   0.1524 : STEP
NULL.                -999.25 : NULL VALUE
COMP.                                             : COMPANY
WELL.    DWN-M-2                                  : WELL
FLD .                                             : FIELD
LOC .             649450,         1813691         : LOCATION
CNTY.                                             : COUNTY
STAT.                                             : STATE
CTRY.                                             : COUNTRY
SRVC.    Jason                                    : SERVICE
DATE.                                             : DATE
API .                                             : API
~Curve Information Section
#MNEM.UNIT          API CODE                   DESCRIPTION
#----------------------------------------------------------------------
DEPTH.m                          : * MD (TRACK/INDEX)
TIME .ms                         : TIME 
DTS  .us/ft                      : S-SONIC
RESIS.ohm*m                      : RESISTIVITY
DT   .us/ft                      : P-SONIC
NPHI .V/V                        : NPHI
LITH .none                       : LITHOLOGY
GR   .gAPI                       : GAMMA RAY
RHOB .g/cc                       : DENSITY
~Parameter Information Section
#MNEM.UNIT          API CODE                   DESCRIPTION
#----------------------------------------------------------------------
XCRD .m                649450.000            : WELL POSITION X-COORD
YCRD .m                1813691.000           : WELL POSITION Y-COORD
DATUM.m                15.000                : WELL DATUM
~Other Information Section
#----------------------------------------------------------------------
# Data exported from Jason, (C) Jason, 2015
# Input file: 2_WELLS_RPM_18March16/DWN-M-2.wll
#----------------------------------------------------------------------
~A DEPTH        TIME           DTS            RESIS          DT             NPHI           LITH           GR             RHOB           
# ...
2102.6628      2409.1179      359.79316      0.7807672      137.44798      0.47872244     0              101.9582       2.2312731      
2102.8152      2409.254       360.75717      0.76266377     137.86897      0.48143207     0              101.65101      2.2302601      
2102.9676      2409.3948      365.96596      0.7507292      138.87675      0.50727159     0              100.50147      2.2249315      
2103.1200      2409.5356      369.17483      0.77465569     139.22346      0.5110753      0              98.712078      2.2244358      
2103.2724      2409.6764      365.87389      0.79505147     138.47737      0.49631226     0              97.893416      2.2307309      
2103.4248      2409.8172      359.60609      0.7646446      137.56357      0.46778338     0              97.800361      2.2321336      
2103.5772      2409.958       358.42487      0.74580512     137.59909      0.46363099     0              97.755855      2.2301533      
2103.7296      2410.0989      363.17758      0.75019458     138.6498       0.47656414     0              97.34994       2.2275479      
2103.8820      2410.2397      370.4778       0.74621215     140.03001      0.48458312     0              96.812836      2.2228129      
2104.0344      2410.3805      382.50048      0.75409128     141.92887      0.49460685     0              96.771141      2.2156636      
2104.1868      2410.5213      403.03035      0.74891451     145.14021      0.51779474     0              96.79281       2.201139       
2104.3392      2410.6621      432.33185      0.68598606     149.73483      0.5635677      0              96.251821      2.1792619      
2104.4916      2410.8029      465.27999      0.64157255     154.23583      0.61170255     0              94.957818      2.1650652      
2104.6440      2410.9437      487.62538      0.69098611     156.79813      0.63981476     0              93.501743      2.1611337      
2104.7964      2411.0846      485.47653      0.71472286     156.71276      0.6473087      0              93.050257      2.1605354      
2104.9488      2411.2267      462.44749      0.72099564     154.20612      0.63444337     0              93.877594      2.1646871      
2105.1012      2411.3712      432.04614      0.7173497      150.50353      0.59957982     0              95.63913       2.1714467      
2105.2536      2411.5158      409.31493      0.68700111     147.54368      0.5636778      0              96.978599      2.1745347      
2105.4060      2411.6603      400.93195      0.65293945     146.50074      0.53823895     0              96.726571      2.1747439      
2105.5584      2411.8049      405.47822      0.63236687     147.33712      0.53923732     0              95.23795       2.1699555      
2105.7108      2411.9494      415.24736      0.61785064     148.87442      0.55096838     0              93.876274      2.1619903      
2105.8632      2412.0939      420.78121      0.59596592     149.78905      0.55223593     0              94.008753      2.1565573      
2106.0156      2412.2385      418.85402      0.58580547     149.51731      0.54359624     0              95.024251      2.1586624      
2106.1680      2412.383       409.9835       0.58901789     148.03909      0.51297526     0              96.027658      2.1688437      
2106.3204      2412.5275      400.03762      0.59801995     146.33862      0.48912816     0              96.722827      2.1703854      
2106.4728      2412.6721      392.95714      0.6063119      145.21736      0.47038581     0              97.105114      2.1699857      
2106.6252      2412.8166      390.40613      0.6100025      145.00086      0.47778377     0              97.193946      2.1697421      
2106.7776      2412.9611      390.6769       0.61061938     145.15866      0.48593923     0              96.674048      2.1685829      
2106.9300      2413.1057      389.60113      0.62739137     144.91672      0.48646826     0              95.603483      2.1708694      
2107.0824      2413.2476      386.1654       0.62025481     144.43168      0.47678942     0              94.953751      2.1715909      
2107.2348      2413.3888      386.32894      0.59742719     144.4539       0.4689161      0              95.277545      2.1688408      
2107.3872      2413.5301      390.95296      0.61450721     145.07206      0.47654256     0              96.213248      2.1698706      
2107.5396      2413.6713      396.45533      0.61639632     145.80721      0.48073164     0              97.496299      2.1690915      
2107.6920      2413.8125      401.311        0.61319169     146.23842      0.48479021     0              98.010677      2.1691876      
2107.8444      2413.9538      401.19118      0.60984736     145.96758      0.48269626     0              98.473468      2.1747052      
2107.9968      2414.095       399.02177      0.64099115     145.43857      0.48023716     0              98.450582      2.1814981      
2108.1492      2414.2363      400.15203      0.66839442     145.23923      0.47892569     0              98.614575      2.1875623      
2108.3016      2414.3775      405.92084      0.66327366     145.70186      0.48142301     0              98.787732      2.191081       
2108.4540      2414.5187      412.73036      0.64895373     146.6417       0.50204825     0              98.265544      2.1919096      
2108.6064      2414.66        414.01379      0.63112615     147.04522      0.51715498     0              98.224217      2.1896682      
2108.7588      2414.8012      407.9443       0.64707098     146.28706      0.5153109      0              98.158133      2.1919925      
2108.9112      2414.9425      400.65386      0.6814561      145.15893      0.49727287     0              99.64489       2.1998         
2109.0636      2415.0837      398.94992      0.70446285     145.00256      0.49630439     0              101.17759      2.199435       
2109.2160      2415.2241      401.12796      0.67785216     145.77923      0.51667308     0              102.57174      2.1889788      
2109.3684      2415.3646      402.18809      0.66382663     146.15378      0.53552087     0              103.96734      2.1803705      
2109.5208      2415.505       397.55631      0.69136022     145.11324      0.53329003     0              105.09358      2.1855277      
2109.6732      2415.6455      389.93442      0.72028229     143.40464      0.51390573     0              107.03157      2.1925691      
2109.8256      2415.7859      381.99174      0.70696491     141.91727      0.49377717     0              108.35872      2.1944764      
2109.9780      2415.9264      374.85107      0.69483135     140.78534      0.47286807     0              108.8879       2.1936149      
2110.1304      2416.0668      369.99213      0.66916677     140.0639       0.4495627      0              108.36041      2.1892912      
2110.2828      2416.2073      369.2001       0.65990014     139.91789      0.43192903     0              107.71194      2.1862037      
2110.4352      2416.3478      373.03951      0.66000405     140.50993      0.42800155     0              107.48012      2.1833908      
2110.5876      2416.4882      381.23343      0.66261566     141.70448      0.43733265     0              107.16756      2.1833446      
2110.7400      2416.6287      392.14753      0.66888016     143.14173      0.44878213     0              106.48363      2.1844692      
2110.8924      2416.7691      400.9101       0.64956334     144.24008      0.45609857     0              105.82969      2.1834472      
2111.0448      2416.9096      403.87975      0.63380742     144.55595      0.45406259     0              106.89718      2.1802289      
2111.1972      2417.0509      403.23041      0.63909939     144.48562      0.44447802     0              108.12914      2.1775353      
2111.3496      2417.1946      407.87612      0.63867642     145.48472      0.44579461     0              109.3501       2.1724505      
2111.5020      2417.3384      424.54063      0.61558868     148.44783      0.48295429     0              107.58085      2.1644765      
