~VERSION INFORMATION
VERS.                  2.0 : CWLS LOG ASCII STANDARD VERSION 2.0
WRAP.                  NO  : DATA IS NOT WRAPPED
~Well Information Section
#MNEM.UNIT          VALUE/NAME                 DESCRIPTION
#----------------------------------------------------------------------
STRT.m                 933.7548 : START DEPTH
STOP.m                2596.7436 : STOP DEPTH
STEP.m                   0.1524 : STEP
NULL.                -999.25 : NULL VALUE
COMP.                                             : COMPANY
WELL.    DWN-M-2                                  : WELL
FLD .                                             : FIELD
LOC .             649450,         1813691         : LOCATION
CNTY.                                             : COUNTY
STAT.                                             : STATE
CTRY.                                             : COUNTRY
SRVC.    Jason                                    : SERVICE
DATE.                                             : DATE
API .                                             : API
~Curve Information Section
#MNEM.UNIT          API CODE                   DESCRIPTION
#----------------------------------------------------------------------
DEPTH.m                          : * MD (TRACK/INDEX)
TIME .ms                         : TIME 
DTS  .us/ft                      : S-SONIC
RESIS.ohm*m                      : RESISTIVITY
DT   .us/ft                      : P-SONIC
NPHI .V/V                        : NPHI
LITH .none                       : LITHOLOGY
GR   .gAPI                       : GAMMA RAY
RHOB .g/cc                       : DENSITY
~Parameter Information Section
#MNEM.UNIT          API CODE                   DESCRIPTION
#----------------------------------------------------------------------
XCRD .m                649450.000            : WELL POSITION X-COORD
YCRD .m                1813691.000           : WELL POSITION Y-COORD
DATUM.m                15.000                : WELL DATUM
~Other Information Section
#----------------------------------------------------------------------
# Data exported from Jason, (C) Jason, 2015
# Input file: 2_WELLS_RPM_18March16/DWN-M-2.wll
#----------------------------------------------------------------------
~A DEPTH        TIME           DTS            RESIS          DT             NPHI           LITH           GR             RHOB           
# ...
2480.3100      2751.3564      245.12025      0.92996049     116.29208      0.36689485     1              98.200571      2.2852928      
2480.4624      2751.4763      229.27433      0.95259224     113.92231      0.30117165     1              94.090451      2.2900524      
2480.6148      2751.5962      217.90911      1.0851811      111.98349      0.25295038     1              89.120089      2.2826122      
2480.7672      2751.7162      214.02584      1.1598806      111.36057      0.25149501     1              85.049026      2.272755       
2480.9196      2751.8328      217.86556      0.99755447     111.92091      0.28707144     1              83.277617      2.2673794      
2481.0720      2751.9493      224.17804      0.88787783     112.727        0.32675654     1              83.679905      2.2784496      
2481.2244      2752.0658      227.3835       0.97254359     113.11078      0.34730848     1              84.859173      2.2884463      
2481.3768      2752.1823      226.53163      1.1843491      112.90746      0.33230127     1              85.72893       2.2950387      
2481.5292      2752.2988      225.11947      1.3166887      112.39765      0.31039322     1              86.224564      2.3046274      
2481.6816      2752.4153      227.73227      1.4149011      111.97334      0.29510598     1              86.769986      2.3201326      
2481.8340      2752.5318      235.11555      1.5546328      112.01217      0.30837875     1              87.765482      2.3482177      
2481.9864      2752.6483      242.79766      1.6266098      112.77277      0.33414218     1              88.703466      2.3671414      
2482.1388      2752.7648      248.08313      1.5524503      113.75015      0.35762724     0              88.594691      2.3800036      
2482.2912      2752.8813      250.83276      1.2641521      114.5908       0.36959068     0              88.105237      2.3819807      
2482.4436      2752.9978      252.68261      1.0657489      115.26583      0.37325199     0              87.704961      2.3756725      
2482.5960      2753.1143      255.34111      1.0529193      115.96236      0.37990059     0              88.58062       2.3709878      
2482.7484      2753.2308      260.07133      1.0695263      116.94616      0.39148598     0              89.877417      2.3697562      
2482.9008      2753.3473      267.99158      1.0787872      118.4941       0.41911849     0              91.318022      2.3710908      
2483.0532      2753.4638      277.80159      1.0704719      120.44592      0.45192177     0              92.574833      2.3675158      
2483.2056      2753.5803      284.5831       1.0617127      121.96374      0.47031094     0              93.853694      2.3579213      
2483.3580      2753.6968      284.62645      1.0730889      122.25937      0.45754757     0              94.622603      2.3542638      
2483.5104      2753.8169      280.03135      1.0643514      121.78784      0.42525084     0              94.465569      2.3502471      
2483.6628      2753.937       277.66517      0.9768782      121.87409      0.40844248     0              93.649334      2.3415095      
2483.8152      2754.0572      281.45831      0.91009028     123.13923      0.42509181     0              92.866839      2.3340441      
2483.9676      2754.1774      290.34321      0.90782425     125.26004      0.46329048     0              92.803001      2.3285657      
2484.1200      2754.2976      299.68088      0.92759665     127.3251       0.50177378     0              93.375932      2.319368       
2484.2724      2754.4178      304.38036      0.92513193     128.30741      0.52283948     0              93.408994      2.3162915      
2484.4248      2754.538       301.29653      0.88643799     127.80037      0.53031129     0              91.95739       2.3104363      
2484.5772      2754.6582      288.10405      0.86621282     125.42347      0.51109903     0              88.809656      2.3031738      
2484.7296      2754.7784      267.14726      0.87737603     122.05838      0.45691903     1              84.539616      2.3027861      
2484.8820      2754.8986      244.20848      0.91930483     119.08941      0.38138242     1              81.065679      2.2998648      
2485.0344      2755.0187      224.95879      1.123603       116.44279      0.31028915     1              79.159911      2.2956695      
2485.1868      2755.1389      212.28225      1.2670743      113.91128      0.26813934     1              79.226451      2.2894202      
2485.3392      2755.2591      204.93844      1.3146428      111.84124      0.24490547     1              79.728926      2.2753999      
2485.4916      2755.3793      200.55373      1.3290874      110.43942      0.23202698     1              80.424557      2.2756013      
2485.6440      2755.4995      199.91832      1.3205567      110.11218      0.22117262     1              81.102973      2.2816492      
2485.7964      2755.6197      208.65467      1.3546985      111.6527       0.22946469     1              83.606892      2.2894527      
2485.9488      2755.7402      225.4105       1.3528757      114.39645      0.26497217     1              87.944521      2.2988042      
2486.1012      2755.8616      242.59847      1.0064818      117.37864      0.33069872     1              93.796314      2.3106782      
2486.2536      2755.983       258.57186      0.70353061     119.86093      0.39098752     1              99.167877      2.3224786      
2486.4060      2756.1044      271.747        0.7230665      121.4746       0.42743064     0              102.55074      2.3276255      
2486.5584      2756.2258      279.33826      0.93829991     122.24302      0.43356309     0              103.96213      2.3342021      
2486.7108      2756.3472      282.22695      1.01589        122.57348      0.42930096     0              103.90405      2.3312369      
2486.8632      2756.4686      282.68513      1.0083558      122.79806      0.42313735     0              103.78911      2.3269647      
2487.0156      2756.5901      282.02861      0.98881461     122.93382      0.42024153     0              103.64422      2.3266571      
2487.1680      2756.7115      280.41014      0.95964294     122.97106      0.41555404     0              103.09475      2.3282651      
2487.3204      2756.8329      279.49         0.94186458     123.13464      0.41454523     0              102.12596      2.3289696      
2487.4728      2756.9543      281.2207       0.9275589      123.74868      0.42100861     0              101.24318      2.3250935      
2487.6252      2757.0757      286.09806      0.91227392     124.83271      0.43797393     0              101.64384      2.3201605      
2487.7776      2757.1971      291.9548       0.90508515     125.92893      0.4546295      0              103.11902      2.3184547      
2487.9300      2757.3185      296.04514      0.90010861     126.6          0.4612793      0              104.91662      2.3178123      
2488.0824      2757.4399      297.74077      0.9072279      126.8704       0.46202768     0              105.62951      2.3159044      
2488.2348      2757.5614      297.92101      0.9193976      126.98708      0.46038183     0              105.20938      2.3122961      
2488.3872      2757.6828      297.28167      0.91787649     127.0002       0.46153684     0              103.85892      2.3092828      
2488.5396      2757.8094      295.78287      0.89830275     126.75368      0.45724846     0              102.5988       2.307838       
2488.6920      2757.9367      293.83724      0.9007113      126.31363      0.45201631     0              102.30591      2.3090612      
2488.8444      2758.0639      291.98621      0.90631347     125.82738      0.44886728     0              103.44341      2.3122248      
2488.9968      2758.1912      290.24703      0.91082022     125.39528      0.4427903      0              104.99878      2.3137412      
2489.1492      2758.3185      288.15436      0.91780682     125.0441       0.43663837     0              105.61115      2.3119314      
