~VERSION INFORMATION
VERS.                  2.0 : CWLS LOG ASCII STANDARD VERSION 2.0
WRAP.                  NO  : DATA IS NOT WRAPPED
~Well Information Section
#MNEM.UNIT          VALUE/NAME                 DESCRIPTION
#----------------------------------------------------------------------
STRT.m                 933.7548 : START DEPTH
STOP.m                2596.7436 : STOP DEPTH
STEP.m                   0.1524 : STEP
NULL.                -999.25 : NULL VALUE
COMP.                                             : COMPANY
WELL.    DWN-M-2                                  : WELL
FLD .                                             : FIELD
LOC .             649450,         1813691         : LOCATION
CNTY.                                             : COUNTY
STAT.                                             : STATE
CTRY.                                             : COUNTRY
SRVC.    Jason                                    : SERVICE
DATE.                                             : DATE
API .                                             : API
~Curve Information Section
#MNEM.UNIT          API CODE                   DESCRIPTION
#----------------------------------------------------------------------
DEPTH.m                          : * MD (TRACK/INDEX)
TIME .ms                         : TIME 
DTS  .us/ft                      : S-SONIC
RESIS.ohm*m                      : RESISTIVITY
DT   .us/ft                      : P-SONIC
NPHI .V/V                        : NPHI
LITH .none                       : LITHOLOGY
GR   .gAPI                       : GAMMA RAY
RHOB .g/cc                       : DENSITY
~Parameter Information Section
#MNEM.UNIT          API CODE                   DESCRIPTION
#----------------------------------------------------------------------
XCRD .m                649450.000            : WELL POSITION X-COORD
YCRD .m                1813691.000           : WELL POSITION Y-COORD
DATUM.m                15.000                : WELL DATUM
~Other Information Section
#----------------------------------------------------------------------
# Data exported from Jason, (C) Jason, 2015
# Input file: 2_WELLS_RPM_18March16/DWN-M-2.wll
#----------------------------------------------------------------------
~A DEPTH        TIME           DTS            RESIS          DT             NPHI           LITH           GR             RHOB           
# ...
2192.5788      2493.2616      292.08984      0.7696064      134.10376      0.41566333     0              89.21036       2.2045024      
2192.7312      2493.4094      296.77242      0.77360621     134.87467      0.43226342     0              89.873466      2.1889522      
2192.8836      2493.5572      299.07605      0.77559134     135.50548      0.43391445     0              90.81098       2.1807726      
2193.0360      2493.7054      299.6427       0.76821235     135.94624      0.43493231     0              91.29004       2.1858736      
2193.1884      2493.8535      300.11552      0.77729846     136.23417      0.43002875     0              91.686324      2.1920584      
2193.3408      2494.0016      302.39157      0.7762853      136.31272      0.43633038     0              92.530031      2.1974175      
2193.4932      2494.1497      305.85564      0.76346982     136.05559      0.43461127     0              94.503569      2.2004876      
2193.6456      2494.2978      310.23785      0.74794603     135.6702       0.44025589     0              96.724019      2.2037042      
2193.7980      2494.4459      312.26367      0.78359947     135.39533      0.44016682     0              98.319545      2.2118924      
2193.9504      2494.5941      309.53462      0.81956178     135.19191      0.43948057     0              97.740461      2.2207627      
2194.1028      2494.7422      302.46021      0.79667738     134.90973      0.42412618     0              96.278588      2.2194925      
2194.2552      2494.8903      296.29948      0.79053176     134.77277      0.4122019      0              94.078418      2.2149208      
2194.4076      2495.0384      295.78214      0.81629969     134.83448      0.41947413     0              92.481296      2.2105213      
2194.5600      2495.1865      299.47637      0.81609063     135.04837      0.43812826     0              90.936007      2.2060846      
2194.7124      2495.3346      300.92529      0.81059998     135.36554      0.4502753      0              89.37137       2.2008371      
2194.8648      2495.4828      297.35769      0.81058961     135.67786      0.4414438      0              88.078139      2.1947568      
2195.0172      2495.6309      293.03708      0.80164617     136.03766      0.42923962     0              87.593478      2.1872213      
2195.1696      2495.7792      291.72706      0.77346573     136.50079      0.42155399     0              88.988292      2.1774869      
2195.3220      2495.9281      293.63294      0.76380207     137.07063      0.42155472     0              91.514423      2.1681915      
2195.4744      2496.0769      297.08547      0.76598705     137.65402      0.42450517     0              94.171076      2.1643908      
2195.6268      2496.2258      300.5436       0.75430116     138.11051      0.42972292     0              94.490518      2.1643         
2195.7792      2496.3747      302.647        0.75524099     138.45571      0.43693397     0              93.180113      2.1643576      
2195.9316      2496.5235      302.68313      0.78138824     138.58163      0.44070989     0              91.23407       2.1663232      
2196.0840      2496.6724      300.86801      0.77426778     138.25302      0.4376232      0              91.277822      2.1735782      
2196.2364      2496.8212      298.15803      0.75890366     137.54373      0.42547716     0              93.079478      2.181131       
2196.3888      2496.9701      297.71638      0.76192893     136.74711      0.41748084     0              94.941848      2.1856737      
2196.5412      2497.119       302.83957      0.77799872     136.0873       0.42661951     0              95.684029      2.1880639      
2196.6936      2497.2678      312.08504      0.77722678     135.87957      0.45155724     0              95.079872      2.1909081      
2196.8460      2497.4167      318.56152      0.80444105     135.90544      0.4706811      0              94.99349       2.1969434      
2196.9984      2497.5655      317.89027      0.82187339     135.38977      0.47134849     0              95.588553      2.20436        
2197.1508      2497.7144      309.80205      0.80221259     134.32303      0.45017866     0              95.923244      2.2115043      
2197.3032      2497.8633      298.2787       0.81045554     133.58341      0.42593975     0              94.905957      2.2176487      
2197.4556      2498.0128      289.26887      0.83207639     133.37643      0.40310767     0              92.735543      2.2226986      
2197.6080      2498.1629      287.4172       0.81089436     133.51181      0.40013905     0              91.504333      2.2238         
2197.7604      2498.3129      292.38837      0.80915636     133.97141      0.41110709     0              92.393405      2.2238         
2197.9128      2498.4629      301.62896      0.78217262     134.63113      0.4281551      0              94.753046      2.2237967      
2198.0652      2498.613       311.32251      0.73539768     135.24743      0.43890775     0              97.361645      2.2235769      
2198.2176      2498.763       318.48789      0.70046985     135.6467       0.44403663     0              98.594034      2.2199168      
2198.3700      2498.913       323.62355      0.68966891     135.99231      0.44922413     0              98.664788      2.2126448      
2198.5224      2499.063       329.08988      0.67757385     136.7163       0.45913299     0              97.371744      2.2056906      
2198.6748      2499.2131      337.36452      0.72390155     138.32669      0.47950907     0              95.38242       2.2014476      
2198.8272      2499.3631      349.05188      0.76089526     140.73804      0.51316554     0              93.455885      2.1993988      
2198.9796      2499.5131      357.21382      0.7568074      142.80158      0.53912773     0              91.332759      2.197892       
2199.1320      2499.6632      356.24179      0.76230699     143.1588       0.53888883     0              89.829531      2.1965546      
2199.2844      2499.8132      349.00498      0.7642794      142.1699       0.5169337      0              87.821819      2.2036198      
2199.4368      2499.9632      346.7732       0.7522358      141.82348      0.5090558      0              86.878722      2.2061284      
2199.5892      2500.1136      353.87961      0.72086477     142.57751      0.51792893     0              87.539912      2.2012855      
2199.7416      2500.2667      359.83281      0.70853245     143.02323      0.52724576     0              89.811729      2.1987505      
2199.8940      2500.4198      352.79693      0.7306844      141.95775      0.5113512      0              92.080833      2.2062345      
2200.0464      2500.5728      335.76269      0.75967541     140.1394       0.48576321     0              91.916957      2.2146674      
2200.1988      2500.7259      319.39635      0.78742492     138.64033      0.46421453     0              90.132542      2.2167261      
2200.3512      2500.879       309.77397      0.79639356     137.68288      0.45221129     0              88.320638      2.2188564      
2200.5036      2501.032       308.18894      0.79175762     137.27287      0.44793666     0              88.017456      2.2237092      
2200.6560      2501.1851      314.85504      0.77166379     137.58185      0.45781247     0              89.058034      2.2263284      
2200.8084      2501.3382      327.39021      0.75926806     138.71989      0.47796363     0              89.772321      2.2238963      
2200.9608      2501.4913      340.74573      0.74328845     140.15624      0.5018451      0              90.058243      2.21515        
2201.1132      2501.6443      348.10823      0.7397252      140.95584      0.51122594     0              90.474779      2.209134       
2201.2656      2501.7974      347.74472      0.7562796      140.89461      0.50922334     0              90.885565      2.2102861      
2201.4180      2501.9505      342.4207       0.78436724     140.23803      0.50481085     0              91.230291      2.2142719      
