~VERSION INFORMATION
VERS.                  2.0 : CWLS LOG ASCII STANDARD VERSION 2.0
WRAP.                  NO  : DATA IS NOT WRAPPED
~Well Information Section
#MNEM.UNIT          VALUE/NAME                 DESCRIPTION
#----------------------------------------------------------------------
STRT.m                 933.7548 : START DEPTH
STOP.m                2596.7436 : STOP DEPTH
STEP.m                   0.1524 : STEP
NULL.                -999.25 : NULL VALUE
COMP.                                             : COMPANY
WELL.    DWN-M-2                                  : WELL
FLD .                                             : FIELD
LOC .             649450,         1813691         : LOCATION
CNTY.                                             : COUNTY
STAT.                                             : STATE
CTRY.                                             : COUNTRY
SRVC.    Jason                                    : SERVICE
DATE.                                             : DATE
API .                                             : API
~Curve Information Section
#MNEM.UNIT          API CODE                   DESCRIPTION
#----------------------------------------------------------------------
DEPTH.m                          : * MD (TRACK/INDEX)
TIME .ms                         : TIME 
DTS  .us/ft                      : S-SONIC
RESIS.ohm*m                      : RESISTIVITY
DT   .us/ft                      : P-SONIC
NPHI .V/V                        : NPHI
LITH .none                       : LITHOLOGY
GR   .gAPI                       : GAMMA RAY
RHOB .g/cc                       : DENSITY
~Parameter Information Section
#MNEM.UNIT          API CODE                   DESCRIPTION
#----------------------------------------------------------------------
XCRD .m                649450.000            : WELL POSITION X-COORD
YCRD .m                1813691.000           : WELL POSITION Y-COORD
DATUM.m                15.000                : WELL DATUM
~Other Information Section
#----------------------------------------------------------------------
# Data exported from Jason, (C) Jason, 2015
# Input file: 2_WELLS_RPM_18March16/DWN-M-2.wll
#----------------------------------------------------------------------
~A DEPTH        TIME           DTS            RESIS          DT             NPHI           LITH           GR             RHOB           
# ...
2246.5284      2545.484       343.3401       0.78463976     138.47437      0.50714122     0              92.366253      2.2352805      
2246.6808      2545.6238      339.22469      0.80082404     137.78729      0.50092329     0              91.524687      2.2377241      
2246.8332      2545.7636      334.84952      0.80853871     137.26251      0.49315631     0              89.604748      2.2417653      
2246.9856      2545.9035      332.27779      0.82339679     137.03679      0.48411435     0              88.828109      2.2455763      
2247.1380      2546.0433      334.55549      0.82018761     137.19979      0.48744503     0              89.238699      2.2447334      
2247.2904      2546.1832      340.55126      0.81339045     137.85242      0.49685473     0              91.036605      2.2407973      
2247.4428      2546.323       345.46811      0.810169       138.56995      0.51093508     0              92.172815      2.2362166      
2247.5952      2546.4628      344.78215      0.79500748     138.38336      0.50970114     0              93.046014      2.2370962      
2247.7476      2546.6027      337.54381      0.80292751     136.94545      0.49133679     0              92.960231      2.248126       
2247.9000      2546.7425      327.13512      0.81859227     135.16445      0.46259238     0              93.60751       2.2613835      
2248.0524      2546.8823      317.92062      0.81267628     133.94314      0.43660942     0              94.021625      2.2658865      
2248.2048      2547.0222      313.55071      0.80318069     133.5818       0.42775418     0              93.904866      2.2653165      
2248.3572      2547.162       315.04001      0.79780097     134.12171      0.43323819     0              93.165503      2.2604152      
2248.5096      2547.3019      321.46171      0.79869235     135.36533      0.45699215     0              91.635952      2.2538194      
2248.6620      2547.4417      326.7884       0.79260384     136.54313      0.47762861     0              90.722394      2.2484556      
2248.8144      2547.582       325.37024      0.7953273      136.93854      0.47732376     0              89.969023      2.2480964      
2248.9668      2547.7225      319.22182      0.80820205     136.81493      0.45976327     0              90.044194      2.2505381      
2249.1192      2547.863       317.13682      0.80869801     136.85927      0.45015717     0              90.433507      2.2485716      
2249.2716      2548.0035      322.3246       0.80698878     137.26389      0.46466832     0              90.920632      2.2442057      
2249.4240      2548.144       328.23106      0.80109614     137.56954      0.47541515     0              91.508051      2.2417168      
2249.5764      2548.2845      330.65737      0.80009737     137.56127      0.47617603     0              91.51971       2.2423444      
2249.7288      2548.425       332.4649       0.79900765     137.51695      0.47305157     0              91.809086      2.245534       
2249.8812      2548.5655      335.13125      0.80582312     137.73173      0.48424465     0              91.798358      2.2459142      
2250.0336      2548.7061      332.97407      0.81638981     137.65878      0.48665276     0              91.629433      2.2461539      
2250.1860      2548.8466      322.64833      0.80960623     137.01765      0.4683506      0              91.131029      2.2472543      
2250.3384      2548.9871      309.9587       0.81329619     136.524        0.44147225     0              90.275532      2.2459287      
2250.4908      2549.1276      303.52179      0.80968092     136.50859      0.42665168     0              89.971018      2.2448124      
2250.6432      2549.2681      305.87078      0.79884979     136.88583      0.43125178     0              89.675432      2.2432413      
2250.7956      2549.4086      315.74664      0.77638467     137.57888      0.44672899     0              89.698942      2.2403183      
2250.9480      2549.5491      329.33415      0.77260641     138.65442      0.47148817     0              90.306872      2.2373232      
2251.1004      2549.6897      339.6125       0.77901707     139.62666      0.49176991     0              90.910546      2.2325669      
2251.2528      2549.8302      338.83679      0.7874164      139.65891      0.49479861     0              91.416382      2.2311349      
2251.4052      2549.9708      324.30084      0.79342006     138.64608      0.46884151     0              90.74562       2.2350742      
2251.5576      2550.1114      306.68686      0.80057713     137.56371      0.43779136     0              90.194045      2.2399521      
2251.7100      2550.2519      295.30687      0.77610979     136.74625      0.41039556     0              90.025748      2.2507752      
2251.8624      2550.3925      292.19534      0.72326701     136.20628      0.40413643     0              90.248839      2.2613971      
2252.0148      2550.5331      294.18614      0.77473273     136.12226      0.40232654     0              90.123801      2.2695934      
2252.1672      2550.6736      302.39414      0.82117655     136.34148      0.42018768     0              89.434795      2.2691233      
2252.3196      2550.8142      314.80526      0.80716095     136.71305      0.44251565     0              89.076624      2.2612892      
2252.4720      2550.9548      324.2147       0.79269188     137.20536      0.46263411     0              89.287881      2.2532813      
2252.6244      2551.0953      326.02319      0.79000244     137.36063      0.46358449     0              89.751177      2.2490883      
2252.7768      2551.2359      323.20303      0.79171637     137.151        0.45693288     0              89.930354      2.2478149      
2252.9292      2551.3765      321.36386      0.79940643     136.93142      0.45446919     0              89.99963       2.2481656      
2253.0816      2551.517       322.92642      0.80119691     136.88906      0.46068553     0              89.828821      2.247065       
2253.2340      2551.6565      327.25141      0.79860111     137.10924      0.47224711     0              90.272046      2.2442561      
2253.3864      2551.7947      331.84166      0.79939347     137.40051      0.48581382     0              90.78527       2.2403908      
2253.5388      2551.9329      333.48901      0.79518221     137.27103      0.49019005     0              92.590189      2.2406234      
2253.6912      2552.0712      330.58623      0.78563529     136.39405      0.47843824     0              94.786059      2.2500691      
2253.8436      2552.2094      325.54743      0.7406305      135.17476      0.45778252     0              97.035649      2.2590623      
2253.9960      2552.3476      318.82531      0.76422224     134.5023       0.43884831     0              97.831456      2.267737       
2254.1484      2552.4859      311.85377      0.8178933      134.43436      0.43036371     0              96.448897      2.2735217      
2254.3008      2552.6241      306.05571      0.81390094     134.37557      0.42122316     0              94.425588      2.2709421      
2254.4532      2552.7623      300.53706      0.814813       134.23697      0.41848869     0              93.035995      2.2634394      
2254.6056      2552.9006      295.03512      0.82389529     133.93283      0.41180178     0              93.357727      2.2569412      
2254.7580      2553.0388      290.42477      0.82058781     133.45696      0.4053396      0              94.114238      2.2583938      
2254.9104      2553.177       288.56888      0.81627814     132.93581      0.39716774     0              95.170576      2.2651695      
2255.0628      2553.3153      292.94126      0.80452332     132.52343      0.40197669     0              96.087355      2.2702515      
2255.2152      2553.4535      302.40713      0.82444691     132.63143      0.42255184     0              96.653589      2.2687183      
2255.3676      2553.5917      311.18709      0.84256136     133.3123       0.44463918     0              95.75753       2.2652374      
