~VERSION INFORMATION
VERS.                  2.0 : CWLS LOG ASCII STANDARD VERSION 2.0
WRAP.                  NO  : DATA IS NOT WRAPPED
~Well Information Section
#MNEM.UNIT          VALUE/NAME                 DESCRIPTION
#----------------------------------------------------------------------
STRT.m                 933.7548 : START DEPTH
STOP.m                2596.7436 : STOP DEPTH
STEP.m                   0.1524 : STEP
NULL.                -999.25 : NULL VALUE
COMP.                                             : COMPANY
WELL.    DWN-M-2                                  : WELL
FLD .                                             : FIELD
LOC .             649450,         1813691         : LOCATION
CNTY.                                             : COUNTY
STAT.                                             : STATE
CTRY.                                             : COUNTRY
SRVC.    Jason                                    : SERVICE
DATE.                                             : DATE
API .                                             : API
~Curve Information Section
#MNEM.UNIT          API CODE                   DESCRIPTION
#----------------------------------------------------------------------
DEPTH.m                          : * MD (TRACK/INDEX)
TIME .ms                         : TIME 
DTS  .us/ft                      : S-SONIC
RESIS.ohm*m                      : RESISTIVITY
DT   .us/ft                      : P-SONIC
NPHI .V/V                        : NPHI
LITH .none                       : LITHOLOGY
GR   .gAPI                       : GAMMA RAY
RHOB .g/cc                       : DENSITY
~Parameter Information Section
#MNEM.UNIT          API CODE                   DESCRIPTION
#----------------------------------------------------------------------
XCRD .m                649450.000            : WELL POSITION X-COORD
YCRD .m                1813691.000           : WELL POSITION Y-COORD
DATUM.m                15.000                : WELL DATUM
~Other Information Section
#----------------------------------------------------------------------
# Data exported from Jason, (C) Jason, 2015
# Input file: 2_WELLS_RPM_18March16/DWN-M-2.wll
#----------------------------------------------------------------------
~A DEPTH        TIME           DTS            RESIS          DT             NPHI           LITH           GR             RHOB           
# ...
2336.4444      2625.5523      344.36473      0.80710517     138.03121      0.50850599     0              97.838574      2.2294828      
2336.5968      2625.6912      347.76122      0.81139362     138.84762      0.5060037      0              96.136438      2.2321542      
2336.7492      2625.8302      344.90251      0.80678468     138.80362      0.50191367     0              94.027724      2.2396387      
2336.9016      2625.9691      335.91902      0.80140096     137.95685      0.47666453     0              92.282948      2.2503198      
2337.0540      2626.108       329.29829      0.80241158     137.0888       0.46568628     0              91.284463      2.2542591      
2337.2064      2626.2469      328.47326      0.81111287     136.4598       0.46544824     0              92.30903       2.254886       
2337.3588      2626.3858      331.49079      0.81571862     136.08348      0.46791347     0              94.346616      2.254439       
2337.5112      2626.5247      334.00735      0.82309266     135.85471      0.47988049     0              96.180769      2.2533035      
2337.6636      2626.6636      331.47868      0.81880268     135.36836      0.47191451     0              96.215501      2.2534104      
2337.8160      2626.8026      323.87195      0.82130304     134.68121      0.46777906     0              95.292665      2.2536349      
2337.9684      2626.9415      313.60484      0.82239896     133.9149       0.43591962     0              94.590789      2.254285       
2338.1208      2627.0804      309.02413      0.82171206     133.6765       0.42898305     0              94.858169      2.2539066      
2338.2732      2627.2193      311.56363      0.82911699     134.19336      0.43333654     0              94.715778      2.2541817      
2338.4256      2627.3582      315.19344      0.83525695     135.15243      0.45561993     0              93.231826      2.2566271      
2338.5780      2627.4967      312.28201      0.87416447     135.62537      0.44631897     0              90.37323       2.2666202      
2338.7304      2627.6346      306.54557      0.94938149     135.32447      0.41440107     0              87.653537      2.2831034      
2338.8828      2627.7725      302.68388      1.0523141      134.38106      0.36790715     0              86.320403      2.2977636      
2339.0352      2627.9104      300.93203      0.96219157     132.93567      0.35251035     0              86.328126      2.3002551      
2339.1876      2628.0483      301.47257      0.85839521     131.74631      0.36435616     0              87.047087      2.2872425      
2339.3400      2628.1861      303.20903      0.8235589      131.67101      0.403668       0              88.243867      2.273805       
2339.4924      2628.324       306.60224      0.81165208     132.8474       0.44741072     0              89.587891      2.2655669      
2339.6448      2628.4619      315.18511      0.79551387     134.04192      0.47476104     0              91.639223      2.2613991      
2339.7972      2628.5998      319.65007      0.80843704     133.97848      0.47817827     0              93.233129      2.2648033      
2339.9496      2628.7377      314.61236      0.82554739     132.75154      0.45290897     0              94.315227      2.2769544      
2340.1020      2628.8755      309.87616      0.84334135     131.96998      0.43956404     0              95.039064      2.2772479      
2340.2544      2629.0134      310.79131      0.85579168     132.2216       0.43315446     0              95.619192      2.269779       
2340.4068      2629.1513      318.55993      0.84755602     133.54021      0.45529069     0              96.474328      2.2612963      
2340.5592      2629.2892      326.31106      0.82113503     135.4482       0.46720392     0              95.907129      2.2554894      
2340.7116      2629.427       329.63768      0.79593192     137.42261      0.47453754     0              93.234008      2.2506504      
2340.8640      2629.5659      326.27843      0.72161582     138.85013      0.47102216     0              89.353808      2.2430034      
2341.0164      2629.7056      317.377        0.73840089     139.66361      0.45625529     0              86.214196      2.2407956      
2341.1688      2629.8453      308.43316      0.80543359     139.92588      0.44876629     0              86.113477      2.2435682      
2341.3212      2629.9849      302.00046      0.81564282     139.6686       0.42386863     0              87.926821      2.2460677      
2341.4736      2630.1246      300.74609      0.77772319     139.35501      0.42326613     0              90.54633       2.2470727      
2341.6260      2630.2642      303.83133      0.79138878     139.16998      0.41489246     0              92.244553      2.2506945      
2341.7784      2630.4039      313.54058      0.7808115      138.77717      0.43576075     0              93.784698      2.2517664      
2341.9308      2630.5435      323.28481      0.7253107      138.03282      0.44314953     0              94.668152      2.2511825      
2342.0832      2630.6832      324.65892      0.80217569     137.10153      0.45729883     0              95.140645      2.2590382      
2342.2356      2630.8229      315.72247      0.82148907     135.53276      0.43381351     0              94.863014      2.2633999      
2342.3880      2630.9625      306.88359      0.81068704     133.91827      0.41976372     0              94.878436      2.2633294      
2342.5404      2631.1022      305.39091      0.80559385     132.78608      0.41101024     0              95.1401        2.2612444      
2342.6928      2631.2418      312.29679      0.80361362     132.48337      0.43882747     0              95.52707       2.2589204      
2342.8452      2631.3815      318.89839      0.81229378     132.85912      0.45288155     0              95.508849      2.2595951      
2342.9976      2631.5211      322.163        0.80568396     133.24553      0.45839979     0              95.984807      2.2616575      
2343.1500      2631.659       322.69845      0.79747529     133.32409      0.4511094      0              96.820434      2.2641421      
2343.3024      2631.7966      321.85308      0.78652031     133.3961       0.44772126     0              96.919683      2.2644926      
2343.4548      2631.9342      319.08902      0.74820034     133.69625      0.44371382     0              95.634041      2.261512       
2343.6072      2632.0717      312.47882      0.74838019     134.228        0.43529922     0              93.314636      2.260249       
2343.7596      2632.2093      305.97833      0.73001535     134.59552      0.42045674     0              92.477384      2.2573955      
2343.9120      2632.3468      302.84387      0.74239517     134.86724      0.41234028     0              93.267962      2.2561829      
2344.0644      2632.4844      305.4327       0.79158721     135.05685      0.41258629     0              95.020028      2.2582967      
2344.2168      2632.6219      316.21069      0.78365357     135.00942      0.43527253     0              95.461464      2.2581674      
2344.3692      2632.7595      327.35041      0.75709306     135.31875      0.46096263     0              95.22739       2.2573146      
2344.5216      2632.897       333.69471      0.75482443     136.01003      0.47599318     0              95.151272      2.2556361      
2344.6740      2633.0346      339.11599      0.77263215     136.72067      0.48526879     0              96.883241      2.2525552      
2344.8264      2633.1721      344.09449      0.78232049     137.38315      0.493999       0              98.743435      2.2483147      
2344.9788      2633.3097      345.44989      0.79001198     137.57828      0.50534344     0              99.188361      2.2442701      
2345.1312      2633.4472      338.30857      0.79539793     136.37911      0.49678993     0              97.631575      2.2495689      
2345.2836      2633.5848      325.00983      0.79379742     134.16458      0.46738354     0              95.361531      2.2597629      
