~VERSION INFORMATION
VERS.                  2.0 : CWLS LOG ASCII STANDARD VERSION 2.0
WRAP.                  NO  : DATA IS NOT WRAPPED
~Well Information Section
#MNEM.UNIT          VALUE/NAME                 DESCRIPTION
#----------------------------------------------------------------------
STRT.m                 933.7548 : START DEPTH
STOP.m                2596.7436 : STOP DEPTH
STEP.m                   0.1524 : STEP
NULL.                -999.25 : NULL VALUE
COMP.                                             : COMPANY
WELL.    DWN-M-2                                  : WELL
FLD .                                             : FIELD
LOC .             649450,         1813691         : LOCATION
CNTY.                                             : COUNTY
STAT.                                             : STATE
CTRY.                                             : COUNTRY
SRVC.    Jason                                    : SERVICE
DATE.                                             : DATE
API .                                             : API
~Curve Information Section
#MNEM.UNIT          API CODE                   DESCRIPTION
#----------------------------------------------------------------------
DEPTH.m                          : * MD (TRACK/INDEX)
TIME .ms                         : TIME 
DTS  .us/ft                      : S-SONIC
RESIS.ohm*m                      : RESISTIVITY
DT   .us/ft                      : P-SONIC
NPHI .V/V                        : NPHI
LITH .none                       : LITHOLOGY
GR   .gAPI                       : GAMMA RAY
RHOB .g/cc                       : DENSITY
~Parameter Information Section
#MNEM.UNIT          API CODE                   DESCRIPTION
#----------------------------------------------------------------------
XCRD .m                649450.000            : WELL POSITION X-COORD
YCRD .m                1813691.000           : WELL POSITION Y-COORD
DATUM.m                15.000                : WELL DATUM
~Other Information Section
#----------------------------------------------------------------------
# Data exported from Jason, (C) Jason, 2015
# Input file: 2_WELLS_RPM_18March16/DWN-M-2.wll
#----------------------------------------------------------------------
~A DEPTH        TIME           DTS            RESIS          DT             NPHI           LITH           GR             RHOB           
# ...
2003.7552      2311.0997      344.7903       0.80921345     136.98005      0.4623283      0              84.315155      2.2168919      
2003.9076      2311.2375      349.67557      0.81752207     137.56164      0.48377613     0              84.071467      2.2195926      
2004.0600      2311.3753      350.57973      0.82591114     137.49845      0.48246232     0              85.108332      2.2228062      
2004.2124      2311.5131      349.75537      0.82945004     137.10828      0.48604044     0              85.909359      2.226149       
2004.3648      2311.6508      349.66142      0.86009355     136.91102      0.48133364     0              86.708103      2.229766       
2004.5172      2311.7886      352.80883      0.85456411     137.4404       0.49553691     0              87.440138      2.2258169      
2004.6696      2311.9264      357.28412      0.83540021     138.20067      0.50363948     0              88.329879      2.2214175      
2004.8220      2312.0642      358.61187      0.83559157     138.34172      0.50978534     0              88.808         2.2207645      
2004.9744      2312.202       354.28502      0.82916082     137.43919      0.49033289     0              89.105274      2.2284535      
2005.1268      2312.3398      348.86642      0.81140684     136.22402      0.47027856     0              89.967905      2.2354648      
2005.2792      2312.4776      346.60861      0.81673656     135.3974       0.45853671     0              91.607958      2.2409747      
2005.4316      2312.6155      347.53616      0.83440245     135.19022      0.45972181     0              93.81028       2.2467781      
2005.5840      2312.7534      349.56705      0.83499014     135.44071      0.4690593      0              94.771661      2.2488659      
2005.7364      2312.8913      351.45119      0.82821092     135.88475      0.47572652     0              94.462337      2.2476176      
2005.8888      2313.0292      352.93908      0.8371283      136.44615      0.48741216     0              92.028823      2.2408836      
2006.0412      2313.1671      354.49829      0.84848781     137.06762      0.49303248     0              89.50714       2.2342763      
2006.1936      2313.305       356.63135      0.83824159     137.72922      0.49807203     0              88.492082      2.227689       
2006.3460      2313.4429      360.3466       0.8089752      138.40999      0.50367855     0              90.081054      2.2236035      
2006.4984      2313.5808      365.56089      0.80164286     138.97451      0.50654634     0              94.146769      2.2238555      
2006.6508      2313.7187      368.50368      0.83347411     139.02781      0.50379066     0              97.59685       2.2283707      
2006.8032      2313.8566      366.59454      0.86263508     138.54358      0.48364527     0              99.192732      2.2340116      
2006.9556      2313.9945      362.37256      0.81352718     138.21794      0.4786115      0              98.074799      2.2286424      
2007.1080      2314.1324      359.92565      0.83166337     138.19601      0.48029311     0              96.170096      2.2252148      
2007.2604      2314.2703      358.34581      0.85652241     138.10299      0.49094406     0              94.600348      2.2255964      
2007.4128      2314.4082      353.94765      0.86292549     137.39189      0.48283313     0              94.706055      2.2256042      
2007.5652      2314.5461      348.7845       0.87382064     136.33074      0.47958861     0              96.596777      2.2285317      
2007.7176      2314.6861      346.0368       0.88083207     135.5645       0.47921758     0              99.58668       2.2303855      
2007.8700      2314.8263      345.14136      0.89577354     135.16412      0.48374535     0              102.29247      2.2314547      
2008.0224      2314.9664      344.48159      0.87692612     134.92795      0.47259391     0              103.32319      2.2300728      
2008.1748      2315.1066      344.17765      0.84339004     134.84867      0.45625185     0              103.48472      2.2280696      
2008.3272      2315.2467      345.90207      0.84062158     135.12212      0.45421058     0              102.99094      2.2299254      
2008.4796      2315.3869      351.0139       0.85910178     136.09977      0.46422598     0              102.77365      2.2301419      
2008.6320      2315.527       357.46545      0.85957788     137.51138      0.48277753     0              101.55626      2.2281987      
2008.7844      2315.6672      361.03032      0.8399009      138.61543      0.48344966     0              99.841331      2.2214031      
2008.9368      2315.8073      362.49644      0.78859135     139.45336      0.47786948     0              97.689041      2.2107491      
2009.0892      2315.9475      366.27995      0.7528868      140.50648      0.47599536     0              97.174799      2.2007497      
2009.2416      2316.0876      376.49586      0.74958386     142.3062       0.48642263     0              97.796489      2.1943812      
2009.3940      2316.2278      391.02027      0.74246422     144.61515      0.50466934     0              99.043563      2.1894125      
2009.5464      2316.3679      399.85061      0.72560144     146.18427      0.5146231      0              99.335105      2.1806785      
2009.6988      2316.5081      399.17415      0.72661316     146.39401      0.51192932     0              98.780396      2.1748353      
2009.8512      2316.6514      393.98436      0.73533363     145.90561      0.51298989     0              97.861509      2.1729033      
2010.0036      2316.8123      387.0008       0.75005303     145.20922      0.51364612     0              97.090275      2.1731343      
2010.1560      2316.9775      373.25187      0.84888825     143.92742      0.50863749     0              95.765802      2.1767692      
2010.3084      2317.1426      356.2945       0.91658958     141.88864      0.48402494     0              93.364294      2.1788605      
2010.4608      2317.3078      348.58115      0.82138602     140.5356       0.46615197     0              91.149454      2.1749218      
2010.6132      2317.4729      351.0597       0.78317853     140.60398      0.47512368     0              90.343135      2.1723481      
2010.7656      2317.6381      362.95625      0.77690944     142.33596      0.50326194     0              91.437518      2.1698184      
2010.9180      2317.8032      376.51053      0.78407006     144.63135      0.53506586     0              92.458199      2.1638613      
2011.0704      2317.9684      384.38297      0.7640751      146.19707      0.55268156     0              92.252654      2.1502052      
2011.2228      2318.1335      387.06931      0.75689138     146.56021      0.55814488     0              91.28041       2.1484303      
2011.3752      2318.2987      384.6022       0.75427196     145.89821      0.53272574     0              90.887204      2.1581958      
2011.5276      2318.4638      375.34651      0.73705476     144.48629      0.49945153     0              91.287907      2.1688453      
2011.6800      2318.629       365.53093      0.72015661     143.27742      0.46298387     0              91.522554      2.1703141      
2011.8324      2318.7941      363.03024      0.70386455     143.00388      0.46370159     0              90.582932      2.1678793      
2011.9848      2318.9597      369.13898      0.69103096     143.78654      0.47305593     0              89.63167       2.1660881      
2012.1372      2319.1253      381.84799      0.71715464     145.47789      0.51186355     0              89.080064      2.1641325      
2012.2896      2319.291       392.43592      0.73739804     146.7912       0.5286687      0              89.49475       2.159227       
2012.4420      2319.4567      395.17671      0.73566819     146.83008      0.53867284     0              90.152245      2.1604152      
2012.5944      2319.6224      389.65272      0.71457154     145.63737      0.51684325     0              90.663457      2.1709861      
