~VERSION INFORMATION
VERS.                  2.0 : CWLS LOG ASCII STANDARD VERSION 2.0
WRAP.                  NO  : DATA IS NOT WRAPPED
~Well Information Section
#MNEM.UNIT          VALUE/NAME                 DESCRIPTION
#----------------------------------------------------------------------
STRT.m                 933.7548 : START DEPTH
STOP.m                2596.7436 : STOP DEPTH
STEP.m                   0.1524 : STEP
NULL.                -999.25 : NULL VALUE
COMP.                                             : COMPANY
WELL.    DWN-M-2                                  : WELL
FLD .                                             : FIELD
LOC .             649450,         1813691         : LOCATION
CNTY.                                             : COUNTY
STAT.                                             : STATE
CTRY.                                             : COUNTRY
SRVC.    Jason                                    : SERVICE
DATE.                                             : DATE
API .                                             : API
~Curve Information Section
#MNEM.UNIT          API CODE                   DESCRIPTION
#----------------------------------------------------------------------
DEPTH.m                          : * MD (TRACK/INDEX)
TIME .ms                         : TIME 
DTS  .us/ft                      : S-SONIC
RESIS.ohm*m                      : RESISTIVITY
DT   .us/ft                      : P-SONIC
NPHI .V/V                        : NPHI
LITH .none                       : LITHOLOGY
GR   .gAPI                       : GAMMA RAY
RHOB .g/cc                       : DENSITY
~Parameter Information Section
#MNEM.UNIT          API CODE                   DESCRIPTION
#----------------------------------------------------------------------
XCRD .m                649450.000            : WELL POSITION X-COORD
YCRD .m                1813691.000           : WELL POSITION Y-COORD
DATUM.m                15.000                : WELL DATUM
~Other Information Section
#----------------------------------------------------------------------
# Data exported from Jason, (C) Jason, 2015
# Input file: 2_WELLS_RPM_18March16/DWN-M-2.wll
#----------------------------------------------------------------------
~A DEPTH        TIME           DTS            RESIS          DT             NPHI           LITH           GR             RHOB           
# ...
2579.2176      2829.8233      243.07879      1.0373968      120.99836      0.40552885     4              85.988491      2.2265084      
2579.3700      2829.9392      241.8602       1.0348202      120.41131      0.39393279     4              85.252685      2.2256067      
2579.5224      2830.0551      240.55187      1.0490665      119.2587       0.38290831     4              84.806674      2.2319596      
2579.6748      2830.171       239.60401      1.0280992      117.50317      0.37325393     4              86.865625      2.245217       
2579.8272      2830.2869      236.12592      1.028275       114.99406      0.34684724     4              89.887615      2.2712424      
2579.9796      2830.4028      229.34802      1.3528249      112.27628      0.30005287     3              93.276662      2.3173912      
2580.1320      2830.5187      223.82715      1.8521093      110.47994      0.25778322     1              95.310874      2.351015       
2580.2844      2830.6346      223.56282      1.9612117      110.25669      0.25197481     1              97.280351      2.3601829      
2580.4368      2830.7505      228.79675      1.6180777      111.73502      0.28161693     4              99.918918      2.3176301      
2580.5892      2830.8664      235.50139      1.1898796      114.26364      0.32216672     4              101.92934      2.2963181      
2580.7416      2830.9823      239.08816      1.1202141      116.7515       0.35052351     4              102.25817      2.2795715      
2580.8940      2831.0982      238.57064      1.129908       118.28545      0.35877745     4              100.94026      2.2501918      
2581.0464      2831.2141      234.63813      1.1807906      118.68461      0.35177568     4              99.388491      2.2300239      
2581.1988      2831.33        229.97069      1.1717399      118.31633      0.33882062     1              98.35288       2.2195155      
2581.3512      2831.4459      226.02709      1.1346774      117.67329      0.32389811     1              97.200438      2.213343       
2581.5036      2831.5618      223.6294       1.1282563      117.16347      0.31240244     1              95.976859      2.2178334      
2581.6560      2831.6777      223.41621      1.1634898      117.00195      0.30937349     1              95.871324      2.2288644      
2581.8084      2831.7951      225.75138      1.1530334      117.21221      0.315009       1              96.718538      2.244178       
2581.9608      2831.9137      229.9715       1.1093165      117.7213       0.32912095     1              97.913817      2.2376298      
2582.1132      2832.0323      234.90641      1.0781496      118.36724      0.34754262     3              98.197933      2.2300752      
2582.2656      2832.1509      239.38798      1.0630469      118.88785      0.36782202     4              97.297905      2.2260343      
2582.4180      2832.2695      241.33478      1.0903097      118.85302      0.38174392     4              95.876656      2.2302371      
2582.5704      2832.388       239.76117      1.0925938      117.8707       0.37525248     4              94.370093      2.23876        
2582.7228      2832.5066      235.49858      1.0880514      116.25626      0.3534917      4              93.639977      2.2506109      
2582.8752      2832.6252      230.00535      1.2606576      114.83478      0.32009325     4              94.657817      2.2724341      
2583.0276      2832.7438      227.69411      1.6321219      114.09572      0.30614792     4              97.323251      2.2862139      
2583.1800      2832.8624      232.02707      1.2677498      114.18066      0.31097329     4              101.12477      2.287145       
2583.3324      2832.981       239.06238      1.0950199      115.52441      0.34215541     4              105.38227      2.2793472      
2583.4848      2833.0996      245.99607      1.1092508      117.45894      0.36997551     4              108.85072      2.2654866      
2583.6372      2833.2182      250.60755      1.1273611      119.18547      0.38699474     4              111.23298      2.2508181      
2583.7896      2833.3368      250.01888      1.1548506      120.06628      0.38672195     4              111.48736      2.2365821      
2583.9420      2833.4554      244.90419      1.177812       119.95504      0.37055981     4              110.1486       2.217826       
2584.0944      2833.5739      239.85478      1.1813024      119.45443      0.35589832     4              107.54114      2.2046369      
2584.2468      2833.6925      238.1101       1.1175119      119.27272      0.35020617     4              105.23541      2.2041369      
2584.3992      2833.8087      240.22819      1.1244445      119.56251      0.36202858     4              104.02408      2.2085567      
2584.5516      2833.9224      244.98304      1.0738103      119.87496      0.37688636     4              104.73648      2.2199762      
2584.7040      2834.0361      249.20472      1.0388137      119.85552      0.38486011     4              106.73554      2.2325985      
2584.8564      2834.1498      251.05711      1.1163437      119.52391      0.39204267     4              108.44661      2.2449883      
2585.0088      2834.2635      249.90986      1.0821399      118.70997      0.38999071     4              108.65955      2.2554913      
2585.1612      2834.3772      244.93638      1.0630298      117.11689      0.37306116     4              106.96188      2.2672194      
2585.3136      2834.4909      236.68348      1.171042       114.93921      0.32695101     3              104.69397      2.2891718      
2585.4660      2834.6046      228.20047      1.5567513      113.30222      0.27926848     1              102.94308      2.3347959      
2585.6184      2834.7183      225.78375      1.5930554      112.79022      0.25943365     1              102.48989      2.3572046      
2585.7708      2834.832       229.86583      1.2380359      113.69807      0.28601097     1              103.31405      2.3492826      
2585.9232      2834.9456      233.39989      1.0929387      115.51852      0.32921315     1              104.54211      2.2895399      
2586.0756      2835.0593      232.62216      1.1220121      116.72564      0.35011001     1              105.26517      2.2205054      
2586.2280      2835.173       228.3963       1.1654591      116.7515       0.33886399     1              104.91238      2.2095224      
2586.3804      2835.2867      224.0525       1.1804705      116.27766      0.31536432     1              104.43832      2.2072732      
2586.5328      2835.4004      221.99075      1.2132806      116.11767      0.30680056     1              104.7266       2.2036854      
2586.6852      2835.5141      221.08378      1.2484267      115.69763      0.31035824     1              106.05639      2.2100557      
2586.8376      2835.6278      214.28502      1.421955       112.82752      0.30011958     1              106.64414      2.2365961      
2586.9900      2835.7415      196.84074      1.4361831      106.94167      0.25583807     1              105.50625      2.2740877      
2587.1424      2835.8552      181.12398      2.9372285      100.82498      0.19118315     1              103.20294      2.3344714      
2587.2948      2835.9689      176.18426      4.3162086      95.979861      0.14213551     1              102.23489      2.3814733      
2587.4472      2836.0826      177.48039      3.5361002      93.676392      0.12893479     1              103.31086      2.3975466      
2587.5996      2836.1963      181.52899      4.1035568      94.735335      0.14025791     1              105.56441      2.3950557      
2587.7520      2836.31        189.28662      3.7445864      98.830582      0.17141787     1              106.89383      2.3680814      
2587.9044      2836.4237      198.8227       2.1208158      104.27674      0.21002497     1              106.56224      2.3121549      
2588.0568      2836.5374      206.99785      1.4451741      109.84548      0.2475095      1              104.95057      2.2614193      
