~VERSION INFORMATION
VERS.                  2.0 : CWLS LOG ASCII STANDARD VERSION 2.0
WRAP.                  NO  : DATA IS NOT WRAPPED
~Well Information Section
#MNEM.UNIT          VALUE/NAME                 DESCRIPTION
#----------------------------------------------------------------------
STRT.m                 933.7548 : START DEPTH
STOP.m                2596.7436 : STOP DEPTH
STEP.m                   0.1524 : STEP
NULL.                -999.25 : NULL VALUE
COMP.                                             : COMPANY
WELL.    DWN-M-2                                  : WELL
FLD .                                             : FIELD
LOC .             649450,         1813691         : LOCATION
CNTY.                                             : COUNTY
STAT.                                             : STATE
CTRY.                                             : COUNTRY
SRVC.    Jason                                    : SERVICE
DATE.                                             : DATE
API .                                             : API
~Curve Information Section
#MNEM.UNIT          API CODE                   DESCRIPTION
#----------------------------------------------------------------------
DEPTH.m                          : * MD (TRACK/INDEX)
TIME .ms                         : TIME 
DTS  .us/ft                      : S-SONIC
RESIS.ohm*m                      : RESISTIVITY
DT   .us/ft                      : P-SONIC
NPHI .V/V                        : NPHI
LITH .none                       : LITHOLOGY
GR   .gAPI                       : GAMMA RAY
RHOB .g/cc                       : DENSITY
~Parameter Information Section
#MNEM.UNIT          API CODE                   DESCRIPTION
#----------------------------------------------------------------------
XCRD .m                649450.000            : WELL POSITION X-COORD
YCRD .m                1813691.000           : WELL POSITION Y-COORD
DATUM.m                15.000                : WELL DATUM
~Other Information Section
#----------------------------------------------------------------------
# Data exported from Jason, (C) Jason, 2015
# Input file: 2_WELLS_RPM_18March16/DWN-M-2.wll
#----------------------------------------------------------------------
~A DEPTH        TIME           DTS            RESIS          DT             NPHI           LITH           GR             RHOB           
# ...
2048.7132      2357.4807      400.46941      0.73225016     147.06086      0.55494124     0              89.688344      2.1632497      
2048.8656      2357.6305      422.26069      0.71167592     150.11602      0.57828028     0              90.472784      2.1560827      
2049.0180      2357.7796      440.80925      0.70402276     152.30144      0.5966572      0              91.956641      2.1535928      
2049.1704      2357.9286      443.15584      0.72325774     152.36604      0.59252909     0              93.008363      2.1562306      
2049.3228      2358.0777      423.99965      0.69212633     149.98511      0.55902437     0              92.388299      2.1586366      
2049.4752      2358.2267      403.26344      0.66320545     147.10626      0.52541147     0              90.732555      2.1714357      
2049.6276      2358.3758      389.83556      0.66742724     144.77742      0.49954444     0              89.146025      2.1849465      
2049.7800      2358.5248      381.32592      0.74473649     142.97947      0.49598935     0              89.231783      2.1976458      
2049.9324      2358.6739      372.19203      0.78663286     141.46756      0.48612324     0              89.821753      2.2015578      
2050.0848      2358.8229      364.32514      0.74133469     140.55024      0.48121574     0              90.718986      2.1974956      
2050.2372      2358.972       361.5424       0.72176608     140.5001       0.48897175     0              90.391256      2.1942073      
2050.3896      2359.121       364.65736      0.76746339     141.29906      0.51956087     0              89.399389      2.1865817      
2050.5420      2359.2701      367.4674       0.83585976     141.82228      0.5401049      0              87.371853      2.1807473      
2050.6944      2359.4191      364.1474       0.85361494     141.3507       0.54195675     0              85.197292      2.1804881      
2050.8468      2359.5682      356.75232      0.85788825     140.12379      0.52100364     0              83.965391      2.1887699      
2050.9992      2359.7162      352.18324      0.8493529      139.1436       0.51126792     0              83.910348      2.1957796      
2051.1516      2359.8614      351.50298      0.82420755     138.77837      0.50581584     0              85.150074      2.1995599      
2051.3040      2360.0066      354.30317      0.82982441     138.9374       0.51303218     0              86.581544      2.2019419      
2051.4564      2360.1518      357.73224      0.84209315     139.12384      0.51232569     0              88.234932      2.2065542      
2051.6088      2360.297       358.32392      0.83687049     138.89026      0.50782243     0              89.667978      2.2125677      
2051.7612      2360.4422      355.75933      0.82373802     138.4423       0.49354922     0              90.183226      2.2176798      
2051.9136      2360.5874      354.83833      0.79636171     138.57383      0.49073873     0              89.889865      2.2138445      
2052.0660      2360.7326      360.05219      0.78470756     139.8113       0.5041543      0              87.996811      2.2042773      
2052.2184      2360.8778      369.13983      0.79071133     141.70236      0.53303249     0              86.285159      2.1878916      
2052.3708      2361.0229      375.6819       0.79443256     143.11275      0.54881548     0              84.562204      2.1779436      
2052.5232      2361.1681      373.32975      0.73971032     143.22848      0.54430379     0              84.141348      2.1703819      
2052.6756      2361.3133      364.96189      0.70985434     142.09073      0.51681311     0              84.178512      2.173217       
2052.8280      2361.4585      357.1716       0.7552311      140.7341       0.49325902     0              84.525632      2.184414       
2052.9804      2361.6037      351.92409      0.80803321     140.10217      0.48310758     0              84.59509       2.1896523      
2053.1328      2361.749       353.17383      0.81746824     140.35962      0.49046133     0              84.624527      2.190148       
2053.2852      2361.8963      357.88399      0.79396418     140.76166      0.49988807     0              85.267198      2.1888379      
2053.4376      2362.0435      359.19873      0.78159231     140.64479      0.49640735     0              85.803862      2.1900742      
2053.5900      2362.1907      357.01602      0.77922491     140.03801      0.48591631     0              85.771398      2.1940836      
2053.7424      2362.3379      354.01606      0.79567831     139.36283      0.46990309     0              84.292591      2.203372       
2053.8948      2362.4851      353.72813      0.77886566     139.1606       0.46090839     0              82.457467      2.208059       
2054.0472      2362.6323      355.55609      0.76738356     139.655        0.46323701     0              81.171641      2.2066811      
2054.1996      2362.7795      359.86545      0.76238551     140.86756      0.47323448     0              81.364805      2.2013133      
2054.3520      2362.9268      367.31096      0.75690246     142.71982      0.49385389     0              83.020136      2.1849623      
2054.5044      2363.074       375.29675      0.75891241     144.43354      0.50823055     0              85.657328      2.1729776      
2054.6568      2363.2212      380.47937      0.76508573     145.45465      0.51609651     0              88.499408      2.1675044      
2054.8092      2363.3684      380.04901      0.75319477     145.54241      0.51060944     0              91.099971      2.1651343      
2054.9616      2363.5156      376.37468      0.7517079      144.98712      0.49410086     0              93.116426      2.166279       
2055.1140      2363.6628      376.29043      0.75852172     144.69069      0.49486357     0              93.923349      2.1701097      
2055.2664      2363.81        378.94594      0.76792498     144.85626      0.51044545     0              92.992333      2.1727512      
2055.4188      2363.9587      379.48511      0.77827339     144.97003      0.53440284     0              91.058951      2.1658603      
2055.5712      2364.1074      373.24797      0.7580897      143.92759      0.53800338     0              90.040149      2.1632869      
2055.7236      2364.256       365.04072      0.7554466      142.10108      0.52359199     0              91.211438      2.174694       
2055.8760      2364.4047      360.65327      0.79170095     140.7185       0.51624131     0              93.873966      2.1877124      
2056.0284      2364.5534      359.65313      0.82863578     139.80402      0.51782948     0              95.833697      2.1985648      
2056.1808      2364.7021      359.22476      0.83870702     138.94487      0.52121454     0              96.239443      2.2093296      
2056.3332      2364.8508      359.10273      0.84067231     138.16647      0.5055342      0              95.574119      2.2244513      
2056.4856      2364.9995      361.31507      0.81804832     138.17542      0.47824836     0              95.500308      2.2269608      
2056.6380      2365.1481      369.33042      0.79899855     139.55863      0.4648974      0              96.004018      2.219919       
2056.7904      2365.2968      382.51494      0.74644383     142.16485      0.48038539     0              97.202423      2.2114736      
2056.9428      2365.4455      398.68092      0.68239249     145.34158      0.50806155     0              97.907497      2.1936813      
2057.0952      2365.5942      412.93344      0.64512861     147.9072       0.53230909     0              97.931465      2.1765333      
2057.2476      2365.7429      416.72902      0.6186044      148.89594      0.52791622     0              97.156794      2.1677169      
2057.4000      2365.8916      412.34423      0.6225942      148.57399      0.53077524     0              96.145903      2.1644743      
2057.5524      2366.0375      404.33961      0.68803826     147.48578      0.52643615     0              95.605778      2.1688996      
