~VERSION INFORMATION
VERS.                  2.0 : CWLS LOG ASCII STANDARD VERSION 2.0
WRAP.                  NO  : DATA IS NOT WRAPPED
~Well Information Section
#MNEM.UNIT          VALUE/NAME                 DESCRIPTION
#----------------------------------------------------------------------
STRT.m                 933.7548 : START DEPTH
STOP.m                2596.7436 : STOP DEPTH
STEP.m                   0.1524 : STEP
NULL.                -999.25 : NULL VALUE
COMP.                                             : COMPANY
WELL.    DWN-M-2                                  : WELL
FLD .                                             : FIELD
LOC .             649450,         1813691         : LOCATION
CNTY.                                             : COUNTY
STAT.                                             : STATE
CTRY.                                             : COUNTRY
SRVC.    Jason                                    : SERVICE
DATE.                                             : DATE
API .                                             : API
~Curve Information Section
#MNEM.UNIT          API CODE                   DESCRIPTION
#----------------------------------------------------------------------
DEPTH.m                          : * MD (TRACK/INDEX)
TIME .ms                         : TIME 
DTS  .us/ft                      : S-SONIC
RESIS.ohm*m                      : RESISTIVITY
DT   .us/ft                      : P-SONIC
NPHI .V/V                        : NPHI
LITH .none                       : LITHOLOGY
GR   .gAPI                       : GAMMA RAY
RHOB .g/cc                       : DENSITY
~Parameter Information Section
#MNEM.UNIT          API CODE                   DESCRIPTION
#----------------------------------------------------------------------
XCRD .m                649450.000            : WELL POSITION X-COORD
YCRD .m                1813691.000           : WELL POSITION Y-COORD
DATUM.m                15.000                : WELL DATUM
~Other Information Section
#----------------------------------------------------------------------
# Data exported from Jason, (C) Jason, 2015
# Input file: 2_WELLS_RPM_18March16/DWN-M-2.wll
#----------------------------------------------------------------------
~A DEPTH        TIME           DTS            RESIS          DT             NPHI           LITH           GR             RHOB           
# ...
1958.7972      2268.5685      374.95414      0.89283652     138.96393      0.50505696     0              107.31467      2.2105004      
1958.9496      2268.7144      375.64158      0.90396205     139.14849      0.50250641     0              107.12363      2.2058439      
1959.1020      2268.8603      375.27898      0.87764887     139.66085      0.49908481     0              105.56207      2.1971189      
1959.2544      2269.0063      378.46108      0.86040228     140.79933      0.50459597     0              102.86164      2.1830131      
1959.4068      2269.1522      387.63281      0.86199007     142.48489      0.50034024     0              99.920544      2.1678818      
1959.5592      2269.2981      403.44394      0.85367623     145.06788      0.5156587      0              97.281021      2.1643         
1959.7116      2269.444       429.96223      0.84407815     148.85191      0.54294959     0              96.096306      2.1644013      
1959.8640      2269.5946      460.09745      0.83583008     152.63354      0.58269184     0              96.047372      2.1674838      
1960.0164      2269.7464      468.65754      0.85809763     153.5815       0.59705564     0              96.842828      2.1725467      
1960.1688      2269.8981      444.94453      0.85593067     150.85328      0.57286344     0              97.908445      2.1764113      
1960.3212      2270.0499      415.71577      0.80656363     147.4373       0.54107231     0              98.075087      2.1841142      
1960.4736      2270.2016      399.99633      0.75822991     145.63483      0.51884624     0              97.39527       2.1896494      
1960.6260      2270.3533      395.47598      0.73752836     145.33067      0.52367858     0              95.888922      2.1854576      
1960.7784      2270.5051      394.91425      0.75686991     145.32627      0.52568551     0              94.504098      2.183851       
1960.9308      2270.6568      393.84558      0.78558234     145.04114      0.51969553     0              94.106568      2.1880835      
1961.0832      2270.8085      391.53157      0.77323122     144.7002       0.50981034     0              94.043019      2.190569       
1961.2356      2270.9603      390.72512      0.7382236      144.6026       0.50479751     0              94.05782       2.1914505      
1961.3880      2271.112       391.02329      0.71063708     144.50746      0.50466764     0              93.21825       2.192472       
1961.5404      2271.2638      391.43102      0.7417935      144.13541      0.50379723     0              91.991328      2.1990091      
1961.6928      2271.4155      391.77025      0.78023469     143.80752      0.51053814     0              90.991504      2.203076       
1961.8452      2271.5672      391.43264      0.79069289     143.64285      0.52153611     0              90.446444      2.2022808      
1961.9976      2271.7117      389.03998      0.78540292     143.3339       0.53341411     0              90.477726      2.2000484      
1962.1500      2271.8555      384.11619      0.78792512     142.62313      0.53762926     0              91.321599      2.2015715      
1962.3024      2271.9993      377.43357      0.73101495     141.52897      0.53473946     0              92.96914       2.205283       
1962.4548      2272.1432      369.24532      0.74115676     139.83502      0.51526406     0              94.773331      2.2157923      
1962.6072      2272.287       362.31021      0.84197491     137.91353      0.48442618     0              96.696762      2.2351057      
1962.7596      2272.4308      358.96666      0.86285544     136.97145      0.46166426     0              97.828409      2.2394533      
1962.9120      2272.5747      360.04992      0.82740604     137.38234      0.46829472     0              99.360472      2.2326789      
1963.0644      2272.7185      364.46298      0.83170438     138.20383      0.48502734     0              100.46483      2.2300822      
1963.2168      2272.8623      365.57713      0.9079103      138.25094      0.49597921     0              101.37141      2.2321797      
1963.3692      2273.0062      359.25181      0.94409931     137.1361       0.47896378     0              101.45368      2.2313504      
1963.5216      2273.15        348.6032       0.94346612     135.77796      0.45248886     0              99.837073      2.2249905      
1963.6740      2273.2938      339.56465      0.91974774     135.20608      0.43116722     0              97.452322      2.2186631      
1963.8264      2273.4377      338.10141      0.89999001     135.60376      0.4339936      0              94.634227      2.2153443      
1963.9788      2273.5815      344.49989      0.89697227     136.76275      0.45490415     0              93.544026      2.2113331      
1964.1312      2273.7267      354.61229      0.8783075      138.15151      0.47408168     0              94.100922      2.2106273      
1964.2836      2273.8725      365.18791      0.83052239     139.53541      0.48827127     0              95.644447      2.211558       
1964.4360      2274.0183      376.38028      0.84558089     140.97099      0.50520805     0              97.254277      2.2145721      
1964.5884      2274.1641      385.69528      0.8836727      142.20384      0.52480765     0              98.327466      2.2109318      
1964.7408      2274.3099      387.86451      0.86491917     142.44318      0.52888245     0              99.565486      2.2088595      
1964.8932      2274.4557      381.91065      0.82889027     141.28545      0.51077179     0              100.72462      2.2132401      
1965.0456      2274.6015      371.30718      0.82634776     139.53267      0.48384673     0              101.23704      2.2151891      
1965.1980      2274.7473      362.82445      0.865551       138.2989       0.47104988     0              101.10225      2.218318       
1965.3504      2274.8931      360.80983      0.88195616     138.26856      0.46933553     0              99.979283      2.2182662      
1965.5028      2275.0389      363.95479      0.84494633     139.4767       0.48840658     0              99.325865      2.2114823      
1965.6552      2275.1847      373.34181      0.82667689     141.36038      0.51130492     0              98.528864      2.204559       
1965.8076      2275.3305      385.81207      0.8192192      143.3862       0.54073139     0              98.188198      2.1935545      
1965.9600      2275.4763      392.43732      0.83364221     144.41025      0.54993904     0              97.126543      2.1894409      
1966.1124      2275.6221      389.99392      0.85206061     144.04274      0.54458168     0              96.028945      2.1908642      
1966.2648      2275.7687      380.28956      0.82187682     142.67396      0.52099498     0              95.425709      2.1968187      
1966.4172      2275.9166      370.45649      0.81553199     141.18283      0.49529876     0              95.90189       2.2011027      
1966.5696      2276.0644      361.80044      0.84051651     140.08755      0.46886116     0              97.203944      2.1981432      
1966.7220      2276.2123      353.37258      0.84508022     139.66402      0.45590624     0              97.811573      2.1937475      
1966.8744      2276.3601      351.32158      0.82914045     139.9287       0.44406952     0              96.820978      2.1915702      
1967.0268      2276.508       359.97014      0.80417234     141.24002      0.46129652     0              93.866994      2.1872017      
1967.1792      2276.6558      375.04107      0.79587022     143.43433      0.48542969     0              90.730047      2.1821561      
1967.3316      2276.8036      390.17794      0.78321887     145.43111      0.53235158     0              88.678364      2.1746494      
1967.4840      2276.9515      396.50575      0.7993314      146.21377      0.54898036     0              89.071426      2.1718779      
1967.6364      2277.0993      396.20628      0.87326732     146.28358      0.5705056      0              89.762076      2.1800534      
