~VERSION INFORMATION
VERS.                  2.0 : CWLS LOG ASCII STANDARD VERSION 2.0
WRAP.                  NO  : DATA IS NOT WRAPPED
~Well Information Section
#MNEM.UNIT          VALUE/NAME                 DESCRIPTION
#----------------------------------------------------------------------
STRT.m                 933.7548 : START DEPTH
STOP.m                2596.7436 : STOP DEPTH
STEP.m                   0.1524 : STEP
NULL.                -999.25 : NULL VALUE
COMP.                                             : COMPANY
WELL.    DWN-M-2                                  : WELL
FLD .                                             : FIELD
LOC .             649450,         1813691         : LOCATION
CNTY.                                             : COUNTY
STAT.                                             : STATE
CTRY.                                             : COUNTRY
SRVC.    Jason                                    : SERVICE
DATE.                                             : DATE
API .                                             : API
~Curve Information Section
#MNEM.UNIT          API CODE                   DESCRIPTION
#----------------------------------------------------------------------
DEPTH.m                          : * MD (TRACK/INDEX)
TIME .ms                         : TIME 
DTS  .us/ft                      : S-SONIC
RESIS.ohm*m                      : RESISTIVITY
DT   .us/ft                      : P-SONIC
NPHI .V/V                        : NPHI
LITH .none                       : LITHOLOGY
GR   .gAPI                       : GAMMA RAY
RHOB .g/cc                       : DENSITY
~Parameter Information Section
#MNEM.UNIT          API CODE                   DESCRIPTION
#----------------------------------------------------------------------
XCRD .m                649450.000            : WELL POSITION X-COORD
YCRD .m                1813691.000           : WELL POSITION Y-COORD
DATUM.m                15.000                : WELL DATUM
~Other Information Section
#----------------------------------------------------------------------
# Data exported from Jason, (C) Jason, 2015
# Input file: 2_WELLS_RPM_18March16/DWN-M-2.wll
#----------------------------------------------------------------------
~A DEPTH        TIME           DTS            RESIS          DT             NPHI           LITH           GR             RHOB           
# ...
2291.4864      2586.0991      316.50228      0.84716134     132.23163      0.44991017     0              92.396178      2.2799172      
2291.6388      2586.2333      324.07179      0.83151556     134.14266      0.48449249     0              90.671787      2.2690417      
2291.7912      2586.3675      324.7802       0.84248587     134.543        0.48703389     0              89.104778      2.2663062      
2291.9436      2586.5041      316.59099      0.83370619     133.49537      0.468128       0              88.620279      2.2721665      
2292.0960      2586.6418      305.97784      0.84002734     132.36316      0.42975591     0              89.517968      2.2756533      
2292.2484      2586.7795      303.01209      0.85603203     131.9338       0.42415978     0              91.476902      2.274345       
2292.4008      2586.9172      309.34514      0.86797682     132.17407      0.43816284     0              93.920895      2.2733902      
2292.5532      2587.0549      318.71184      0.85280077     133.12638      0.47000589     0              95.911505      2.2679637      
2292.7056      2587.1925      323.55919      0.81432347     134.10923      0.48724556     0              96.925403      2.2566224      
2292.8580      2587.3302      323.9471       0.79062183     134.50714      0.48854743     0              96.019882      2.2571301      
2293.0104      2587.4679      324.55068      0.80769748     134.81233      0.48952397     0              93.545849      2.2549856      
2293.1628      2587.6056      328.90478      0.85235386     135.83095      0.50295114     0              90.950756      2.2504748      
2293.3152      2587.7433      335.20032      0.82456342     137.18516      0.5275471      0              89.866296      2.2380503      
2293.4676      2587.881       336.57354      0.81391442     137.34865      0.53477615     0              90.922359      2.234485       
2293.6200      2588.0187      328.26195      0.82571709     135.41672      0.50698017     0              92.204711      2.2521804      
2293.7724      2588.1564      316.15004      0.83129906     132.83705      0.46262822     0              92.996869      2.2792559      
2293.9248      2588.2941      308.86977      0.83069863     131.47953      0.43578348     0              92.728515      2.2924218      
2294.0772      2588.4318      310.62232      0.8302079      131.65178      0.43734973     0              93.15143       2.2897029      
2294.2296      2588.5677      319.50412      0.8370098      133.05108      0.46320546     0              94.69866       2.2779766      
2294.3820      2588.7027      329.71262      0.84038955     134.92927      0.48804548     0              96.736141      2.259789       
2294.5344      2588.8377      336.81703      0.83363523     136.31687      0.51574396     0              98.457559      2.2413419      
2294.6868      2588.9727      335.82469      0.8541323      136.2155       0.51983099     0              98.534263      2.2363755      
2294.8392      2589.1077      325.58522      0.86346721     134.45231      0.50072572     0              97.858558      2.2458601      
2294.9916      2589.2427      311.8282       0.83780985     132.25701      0.46465247     0              95.937514      2.2387654      
2295.1440      2589.3777      301.04926      0.80226037     131.07647      0.4338838      0              93.809325      2.2296075      
2295.2964      2589.5127      296.07426      0.79223599     130.9892       0.42906026     0              91.865237      2.2200306      
2295.4488      2589.6477      295.12684      0.82658504     131.33818      0.42931612     0              90.54003       2.2117889      
2295.6012      2589.7827      295.98021      0.81424896     131.59248      0.44046372     0              89.850585      2.2106001      
2295.7536      2589.9177      294.11998      0.79176634     131.56266      0.43596579     0              89.474631      2.2106236      
2295.9060      2590.0527      289.11796      0.83327393     131.22877      0.4266441      0              88.988614      2.211579       
2296.0584      2590.1877      283.90611      0.80654244     130.48006      0.40938717     0              89.10393       2.218877       
2296.2108      2590.3227      279.61107      0.7793484      129.53637      0.39552002     0              90.004613      2.2288177      
2296.3632      2590.4577      276.64031      0.81546106     128.50209      0.38587023     0              91.821757      2.2384917      
2296.5156      2590.5913      276.13604      0.83401413     127.44665      0.37617581     0              93.399787      2.2477403      
2296.6680      2590.7234      280.1338       0.83726475     126.77526      0.38135109     0              94.404754      2.2559566      
2296.8204      2590.8555      287.60546      0.80525915     127.14356      0.40237653     0              94.932749      2.2606522      
2296.9728      2590.9876      294.89869      0.79053806     128.38472      0.43140997     0              95.636196      2.2610016      
2297.1252      2591.1197      299.288        0.81655867     129.08695      0.44258942     0              96.282248      2.2554163      
2297.2776      2591.2518      299.59162      0.83383105     128.79623      0.43675873     0              97.122468      2.2516628      
2297.4300      2591.3839      296.18899      0.84383619     127.80885      0.42247661     0              97.549625      2.2535596      
2297.5824      2591.5159      291.42792      0.86258038     126.70006      0.40790754     0              98.202966      2.2563875      
2297.7348      2591.648       287.09126      0.84862802     125.9256       0.39691624     0              98.218378      2.2593914      
2297.8872      2591.7801      284.52861      0.86638932     125.78742      0.38550736     0              97.573392      2.2622978      
2298.0396      2591.9122      286.69018      0.91575691     126.1883       0.39413808     0              96.283554      2.2634591      
2298.1920      2592.0443      292.85135      0.87835553     127.10453      0.41157207     0              95.444238      2.2619891      
2298.3444      2592.1764      299.617        0.86335208     128.58303      0.4360841      0              95.549054      2.2544807      
2298.4968      2592.3085      305.26979      0.84601795     129.92762      0.4482352      0              96.217023      2.2439212      
2298.6492      2592.4406      309.83262      0.8565541      130.99829      0.45484015     0              96.543518      2.2370252      
2298.8016      2592.5729      314.2689       0.8825897      132.15752      0.46595067     0              96.104361      2.2313513      
2298.9540      2592.7087      318.76561      0.87444286     133.31351      0.48024725     0              95.663803      2.2263557      
2299.1064      2592.8446      322.82527      0.84627726     134.18557      0.49280207     0              95.94356       2.2260113      
2299.2588      2592.9804      326.28649      0.84072083     134.76311      0.4989369      0              97.281468      2.2291049      
2299.4112      2593.1162      328.50368      0.86093642     134.99865      0.50124939     0              98.907417      2.2303965      
2299.5636      2593.252       328.25413      0.87625449     134.68949      0.49739262     0              100.19114      2.230218       
2299.7160      2593.3879      324.81274      0.84352816     133.97808      0.48363082     0              101.09813      2.2278062      
2299.8684      2593.5237      321.02135      0.77411995     133.20707      0.46606117     0              101.68892      2.2219795      
2300.0208      2593.6595      319.17804      0.79460327     132.66959      0.45601934     0              101.87286      2.2174732      
2300.1732      2593.7953      317.92781      0.79569494     132.49346      0.45393817     0              101.05138      2.2172         
2300.3256      2593.9311      314.53131      0.79191871     132.43668      0.44904486     0              98.965292      2.2172         
