~VERSION INFORMATION
VERS.                  2.0 : CWLS LOG ASCII STANDARD VERSION 2.0
WRAP.                  NO  : DATA IS NOT WRAPPED
~Well Information Section
#MNEM.UNIT          VALUE/NAME                 DESCRIPTION
#----------------------------------------------------------------------
STRT.m                 933.7548 : START DEPTH
STOP.m                2596.7436 : STOP DEPTH
STEP.m                   0.1524 : STEP
NULL.                -999.25 : NULL VALUE
COMP.                                             : COMPANY
WELL.    DWN-M-2                                  : WELL
FLD .                                             : FIELD
LOC .             649450,         1813691         : LOCATION
CNTY.                                             : COUNTY
STAT.                                             : STATE
CTRY.                                             : COUNTRY
SRVC.    Jason                                    : SERVICE
DATE.                                             : DATE
API .                                             : API
~Curve Information Section
#MNEM.UNIT          API CODE                   DESCRIPTION
#----------------------------------------------------------------------
DEPTH.m                          : * MD (TRACK/INDEX)
TIME .ms                         : TIME 
DTS  .us/ft                      : S-SONIC
RESIS.ohm*m                      : RESISTIVITY
DT   .us/ft                      : P-SONIC
NPHI .V/V                        : NPHI
LITH .none                       : LITHOLOGY
GR   .gAPI                       : GAMMA RAY
RHOB .g/cc                       : DENSITY
~Parameter Information Section
#MNEM.UNIT          API CODE                   DESCRIPTION
#----------------------------------------------------------------------
XCRD .m                649450.000            : WELL POSITION X-COORD
YCRD .m                1813691.000           : WELL POSITION Y-COORD
DATUM.m                15.000                : WELL DATUM
~Other Information Section
#----------------------------------------------------------------------
# Data exported from Jason, (C) Jason, 2015
# Input file: 2_WELLS_RPM_18March16/DWN-M-2.wll
#----------------------------------------------------------------------
~A DEPTH        TIME           DTS            RESIS          DT             NPHI           LITH           GR             RHOB           
# ...
2147.6208      2449.7885      331.16105      0.90536963     132.3379       0.44830978     0              94.020365      2.2416501      
2147.7732      2449.92        330.16214      0.89634514     132.2625       0.44538559     0              91.832294      2.242186       
2147.9256      2450.0515      331.49647      0.86475745     132.78618      0.45584441     0              91.001499      2.2417664      
2148.0780      2450.1833      334.84229      0.84782799     133.66453      0.47641931     0              91.420878      2.2410122      
2148.2304      2450.3152      339.81254      0.86793079     134.70075      0.50860688     0              92.479242      2.2362607      
2148.3828      2450.4472      343.71513      0.82399799     135.60538      0.52261378     0              92.785803      2.2286508      
2148.5352      2450.5792      345.75911      0.82353242     136.04209      0.51923545     0              92.365578      2.2256857      
2148.6876      2450.7112      345.0458       0.85204206     135.99316      0.50881577     0              91.261196      2.2278466      
2148.8400      2450.8431      340.73785      0.80815297     135.52536      0.49221579     0              90.858249      2.2263027      
2148.9924      2450.9751      336.75236      0.79478762     134.8669       0.47343479     0              91.492357      2.224458       
2149.1448      2451.1071      334.03855      0.79173968     134.45826      0.44806308     0              92.836442      2.2165841      
2149.2972      2451.2391      333.78432      0.74451491     134.66262      0.44078597     0              93.67433       2.2084131      
2149.4496      2451.371       335.76034      0.71045772     135.18541      0.4447414      0              93.537485      2.2032572      
2149.6020      2451.503       337.60265      0.7504436      135.54035      0.44510835     0              92.754702      2.2027137      
2149.7544      2451.635       339.6483       0.7616147      136.04664      0.43920595     0              92.394367      2.2003593      
2149.9068      2451.767       344.09375      0.67799091     137.21506      0.44509771     0              92.301178      2.1882402      
2150.0592      2451.8989      351.52333      0.67515955     138.71544      0.46420829     0              91.899947      2.1853414      
2150.2116      2452.0346      359.32028      0.71814984     140.1939       0.48765827     0              90.50472       2.1862038      
2150.3640      2452.1844      362.67352      0.68621993     141.05265      0.49512811     0              89.292585      2.1811716      
2150.5164      2452.3342      360.90802      0.7072943      140.6889       0.49513108     0              89.380649      2.1835933      
2150.6688      2452.484       353.68427      0.76508946     139.07517      0.47479727     0              90.884795      2.1919697      
2150.8212      2452.6338      345.60656      0.75710133     137.22972      0.45217631     0              92.141021      2.1971926      
2150.9736      2452.7836      340.61436      0.75805749     136.11591      0.43781151     0              91.552211      2.2017064      
2151.1260      2452.9334      341.02129      0.79057552     136.03555      0.45474056     0              89.895752      2.2070634      
2151.2784      2453.0832      344.74191      0.81623673     136.40909      0.4791049      0              89.068519      2.2172264      
2151.4308      2453.2329      345.47718      0.83018421     136.3465       0.49189207     0              90.611423      2.2212676      
2151.5832      2453.3827      342.13321      0.81915878     135.56628      0.47244092     0              94.076007      2.2217888      
2151.7356      2453.5325      339.38062      0.80480931     135.04383      0.45312455     0              96.493474      2.2156295      
2151.8880      2453.6823      340.63706      0.81394832     135.53828      0.44763134     0              96.710539      2.209691       
2152.0404      2453.8321      345.02642      0.77039844     136.89863      0.47149356     0              94.296456      2.2032175      
2152.1928      2453.9819      348.0458       0.73184494     137.76024      0.48437981     0              91.529052      2.1997453      
2152.3452      2454.1317      348.01008      0.76070222     137.48117      0.48038958     0              89.705514      2.2042219      
2152.4976      2454.282       345.66811      0.8092945      136.72077      0.46497965     0              88.250219      2.2113778      
2152.6500      2454.4331      344.08177      0.80434138     136.57191      0.46307579     0              87.04988       2.2121025      
2152.8024      2454.5841      346.33644      0.76708532     137.25289      0.47589903     0              86.602866      2.2096333      
2152.9548      2454.7352      352.24067      0.76329366     138.24631      0.48879859     0              87.384854      2.2104967      
2153.1072      2454.8863      358.3489       0.76159364     139.17079      0.49838867     0              88.837366      2.2103383      
2153.2596      2455.0373      360.36317      0.75891124     139.48337      0.49805063     0              89.330777      2.2087         
2153.4120      2455.1884      356.99429      0.76788524     138.93722      0.48384339     0              88.832392      2.2070187      
2153.5644      2455.3395      351.90108      0.75751685     138.2089       0.46981498     0              88.247598      2.2035297      
2153.7168      2455.4906      349.57026      0.72052959     137.95534      0.46271828     0              88.310397      2.1994333      
2153.8692      2455.6416      351.38067      0.74995267     138.32157      0.47094742     0              88.733695      2.2001795      
2154.0216      2455.7927      354.12918      0.77278947     138.96017      0.47508804     0              89.675572      2.1966852      
2154.1740      2455.9438      355.81815      0.76508504     139.46717      0.47218749     0              90.363078      2.1932303      
2154.3264      2456.0949      356.15453      0.76043656     139.77924      0.46572256     0              91.370001      2.1885584      
2154.4788      2456.2459      358.73068      0.70730393     140.16443      0.46073477     0              91.787034      2.1831935      
2154.6312      2456.397       362.8094       0.71082242     140.76129      0.46680309     0              92.18977       2.1820496      
2154.7836      2456.5485      366.34537      0.72333375     141.2981       0.4771742      0              92.393064      2.1835008      
2154.9360      2456.7         365.70201      0.73536258     141.20809      0.47941677     0              92.231583      2.1853273      
2155.0884      2456.8515      361.08588      0.75864499     140.47193      0.472167       0              91.499422      2.1897945      
2155.2408      2457.003       358.37247      0.77299676     139.99747      0.47220135     0              90.613402      2.1925448      
2155.3932      2457.1545      360.26705      0.77044505     140.1315       0.49098238     0              90.20505       2.1948421      
2155.5456      2457.306       361.88424      0.8019721      140.1356       0.51186583     0              90.662605      2.199439       
2155.6980      2457.4575      358.83785      0.82377929     139.29845      0.51296968     0              91.661851      2.2052967      
2155.8504      2457.609       354.06082      0.80304602     138.19636      0.5076992      0              92.47177       2.2136949      
2156.0028      2457.7605      351.19318      0.77683973     137.55257      0.50631892     0              92.443245      2.2175439      
2156.1552      2457.912       349.14727      0.8060143      137.10173      0.50769168     0              91.345542      2.2196219      
2156.3076      2458.0635      344.55288      0.84910119     136.28256      0.50036016     0              89.537314      2.2236351      
2156.4600      2458.215       338.21443      0.84937283     135.24528      0.47812538     0              87.784682      2.2252889      
