~VERSION INFORMATION
VERS.                  2.0 : CWLS LOG ASCII STANDARD VERSION 2.0
WRAP.                  NO  : DATA IS NOT WRAPPED
~Well Information Section
#MNEM.UNIT          VALUE/NAME                 DESCRIPTION
#----------------------------------------------------------------------
STRT.m                 933.7548 : START DEPTH
STOP.m                2596.7436 : STOP DEPTH
STEP.m                   0.1524 : STEP
NULL.                -999.25 : NULL VALUE
COMP.                                             : COMPANY
WELL.    DWN-M-2                                  : WELL
FLD .                                             : FIELD
LOC .             649450,         1813691         : LOCATION
CNTY.                                             : COUNTY
STAT.                                             : STATE
CTRY.                                             : COUNTRY
SRVC.    Jason                                    : SERVICE
DATE.                                             : DATE
API .                                             : API
~Curve Information Section
#MNEM.UNIT          API CODE                   DESCRIPTION
#----------------------------------------------------------------------
DEPTH.m                          : * MD (TRACK/INDEX)
TIME .ms                         : TIME 
DTS  .us/ft                      : S-SONIC
RESIS.ohm*m                      : RESISTIVITY
DT   .us/ft                      : P-SONIC
NPHI .V/V                        : NPHI
LITH .none                       : LITHOLOGY
GR   .gAPI                       : GAMMA RAY
RHOB .g/cc                       : DENSITY
~Parameter Information Section
#MNEM.UNIT          API CODE                   DESCRIPTION
#----------------------------------------------------------------------
XCRD .m                649450.000            : WELL POSITION X-COORD
YCRD .m                1813691.000           : WELL POSITION Y-COORD
DATUM.m                15.000                : WELL DATUM
~Other Information Section
#----------------------------------------------------------------------
# Data exported from Jason, (C) Jason, 2015
# Input file: 2_WELLS_RPM_18March16/DWN-M-2.wll
#----------------------------------------------------------------------
~A DEPTH        TIME           DTS            RESIS          DT             NPHI           LITH           GR             RHOB           
# ...
2534.2596      2794.424       288.78011      0.79050123     126.35529      0.42013452     0              103.51986      2.2906368      
2534.4120      2794.5515      296.01443      0.79154372     127.53652      0.46012455     0              103.32538      2.2953511      
2534.5644      2794.6789      300.39902      0.8203213      128.36575      0.49283201     0              101.71539      2.3005641      
2534.7168      2794.8064      299.5694       0.82558876     128.52857      0.50464681     0              99.130026      2.2995709      
2534.8692      2794.9339      293.99791      0.81437496     127.94084      0.49146688     0              96.757733      2.2990719      
2535.0216      2795.0614      288.34873      0.80281233     127.2214       0.46475881     0              96.352744      2.2961038      
2535.1740      2795.1889      285.71889      0.81183061     126.91704      0.44979081     0              96.677007      2.2947832      
2535.3264      2795.3164      287.82251      0.82279403     127.42864      0.44953228     0              97.786287      2.2928669      
2535.4788      2795.4439      293.09325      0.81649367     128.39356      0.47209916     0              98.225654      2.2925977      
2535.6312      2795.5714      296.32525      0.81392757     128.80776      0.48628852     0              98.184054      2.2955722      
2535.7836      2795.6989      293.73347      0.83506944     128.01644      0.48697644     0              98.047185      2.3002653      
2535.9360      2795.8263      286.22685      0.8612223      126.44766      0.45910954     0              97.894148      2.3022215      
2536.0884      2795.9537      280.02048      0.86656388     125.40728      0.43110884     0              97.711167      2.2996528      
2536.2408      2796.0811      278.77501      0.83259511     125.54486      0.42011764     0              96.917462      2.2925042      
2536.3932      2796.2085      282.55337      0.78236983     126.82756      0.43514168     0              95.221997      2.2866394      
2536.5456      2796.3359      287.78517      0.73386561     128.40839      0.45402051     0              93.283603      2.2833441      
2536.6980      2796.4633      291.0786       0.69087784     129.44448      0.46027261     0              91.468829      2.2849111      
2536.8504      2796.5907      292.37487      0.68511906     129.8446       0.45592702     0              90.638024      2.2921195      
2537.0028      2796.7182      294.22764      0.70119551     130.07667      0.45594499     0              90.828645      2.2982384      
2537.1552      2796.8456      297.57068      0.6978516      130.43672      0.46546783     0              92.189667      2.2996377      
2537.3076      2796.973       300.09028      0.67190334     130.54083      0.47592334     0              93.783355      2.2953909      
2537.4600      2797.1004      298.80796      0.67557311     129.65142      0.47412414     0              95.045477      2.2953559      
2537.6124      2797.2278      292.50263      0.73536514     127.97968      0.45454035     0              95.724612      2.2967337      
2537.7648      2797.3552      284.35651      0.75758914     126.26512      0.42793353     0              96.092983      2.2946788      
2537.9172      2797.4826      278.05683      0.75027323     125.03857      0.40527683     0              96.538337      2.2907339      
2538.0696      2797.61        275.08016      0.74138739     124.43123      0.39660807     0              96.704493      2.290126       
2538.2220      2797.7374      274.60747      0.73770531     124.22011      0.40045331     0              96.129582      2.2938887      
2538.3744      2797.8609      275.45436      0.74205305     124.15226      0.40710314     0              95.05356       2.2988248      
2538.5268      2797.9842      277.28303      0.772778       124.19919      0.41884245     0              94.269614      2.303768       
2538.6792      2798.1075      279.58389      0.79725973     124.34519      0.43277655     0              94.402893      2.3061581      
2538.8316      2798.2308      281.0944       0.81964757     124.36765      0.44802025     0              95.428046      2.3111259      
2538.9840      2798.3541      279.80488      0.84149739     124.0189       0.45170195     0              96.474769      2.31596        
2539.1364      2798.4774      276.04991      0.83960838     123.36843      0.43624332     0              97.331064      2.3166083      
2539.2888      2798.6007      273.5062       0.84502563     122.91053      0.42557475     0              98.271096      2.3167392      
2539.4412      2798.7239      274.08698      0.85955611     122.88106      0.4263863      0              99.573047      2.3178427      
2539.5936      2798.8472      276.4723       0.89309756     123.11538      0.43978657     0              100.80427      2.3205572      
2539.7460      2798.9705      276.61908      0.89114121     123.13054      0.44688418     0              100.54084      2.3211815      
2539.8984      2799.0938      272.57509      0.8547605      122.52335      0.43754521     0              98.274905      2.3207136      
2540.0508      2799.2171      266.35372      0.84490455     121.5134       0.42356419     0              94.962506      2.3211591      
2540.2032      2799.3404      260.45393      0.84922444     120.55615      0.40272942     0              92.454921      2.3223676      
2540.3556      2799.4637      257.08372      0.86343388     120.05552      0.39489511     0              91.961965      2.3232654      
2540.5080      2799.5869      255.97317      0.87578518     120.00454      0.39020863     0              92.923819      2.3221341      
2540.6604      2799.7102      256.12083      0.86661037     120.21515      0.38878199     0              94.403306      2.3185469      
2540.8128      2799.8303      257.4721       0.8769743      120.59621      0.38338522     0              95.816114      2.3143616      
2540.9652      2799.949       260.65448      0.85503878     121.2755       0.390429       0              96.977903      2.3109263      
2541.1176      2800.0677      264.84372      0.83009387     121.99669      0.40150789     0              97.51794       2.3101953      
2541.2700      2800.1864      267.4753       0.82862605     122.27498      0.41872211     0              96.895768      2.3129436      
2541.4224      2800.3051      266.71256      0.8565136      121.85498      0.4134581      0              95.568932      2.315143       
2541.5748      2800.4238      264.29592      0.86163707     121.08301      0.41040784     0              94.844335      2.3174602      
2541.7272      2800.5425      261.8422       0.88322686     120.22324      0.39748428     0              95.724048      2.3200583      
2541.8796      2800.6613      260.06917      0.89119683     119.52223      0.39210325     0              97.61903       2.3225588      
2542.0320      2800.78        258.34554      0.88933044     118.91407      0.38635786     0              99.464075      2.3253241      
2542.1844      2800.8987      256.08234      0.91812085     118.25688      0.37972806     4              100.01041      2.3316702      
2542.3368      2801.0174      252.98232      0.92528351     117.51931      0.37314397     4              99.44977       2.3372519      
2542.4892      2801.1361      249.38975      0.9137544      116.66137      0.36137585     4              98.483409      2.3407968      
2542.6416      2801.2548      247.17706      0.94767501     115.94967      0.35729091     4              97.256141      2.343799       
2542.7940      2801.3735      246.82677      0.97479098     115.61518      0.36425031     4              96.577527      2.3469385      
2542.9464      2801.4922      247.11793      0.96710503     115.49389      0.36911993     4              95.634346      2.3489476      
2543.0988      2801.6109      247.096        0.97082963     115.35419      0.37032584     4              94.851448      2.3512889      
